City,Lat,Lng,Max Temp,Humidity,Cloudiness,Wind Speed,Country,Date
Saint Paul Harbor,57.79,-152.4072,-2.0,64,1,1.54,US,1612159502
Ushuaia,-54.8,-68.3,10.0,76,75,6.69,AR,1612159429
San Juan,-31.5375,-68.5364,14.66,64,60,5.85,AR,1612159502
Hengshui,37.7322,115.7011,6.25,43,0,5.21,CN,1612159503
Bredasdorp,-34.5322,20.0403,16.67,71,97,1.34,ZA,1612159504
Dikson,73.5069,80.5464,-33.29,79,39,4.73,RU,1612159504
Ixtapa,20.7,-105.2,20.56,95,1,1.79,MX,1612159228
Juneau,58.3019,-134.4197,-7.0,86,1,2.72,US,1612159506
Santa Barbara,34.7333,-120.0343,11.11,76,1,1.67,US,1612159479
Ust-Tsilma,65.441,52.1498,-2.08,98,100,4.65,RU,1612159506
Lábrea,-7.2586,-64.7981,22.89,97,96,0.57,BR,1612159507
Thompson,55.7435,-97.8558,-14.0,85,90,0.82,CA,1612159233
Lázaro Cárdenas,17.9583,-102.2,22.9,82,0,2.01,MX,1612159508
Tasiilaq,65.6145,-37.6368,-10.0,62,75,0.51,GL,1612159508
Jacareacanga,-6.2222,-57.7528,23.45,93,89,0.45,BR,1612159509
Bathsheba,13.2167,-59.5167,25.0,73,40,8.23,BB,1612159509
Beloha,-25.1667,45.05,32.74,46,0,3.22,MG,1612159510
Norman Wells,65.282,-126.8329,-31.0,76,75,2.06,CA,1612159511
Rikitea,-23.1203,-134.9692,26.36,70,53,3.79,PF,1612159511
Tuktoyaktuk,69.4541,-133.0374,-32.0,75,20,3.06,CA,1612159511
Atuona,-9.8,-139.0333,26.01,76,8,7.96,PF,1612159511
Port Alfred,-33.5906,26.891,20.56,78,74,2.24,ZA,1612159512
Busselton,-33.65,115.3333,32.78,29,0,1.79,AU,1612159513
Arraial do Cabo,-22.9661,-42.0278,24.4,87,100,9.82,BR,1612159513
Hobart,-42.8794,147.3294,19.44,68,75,8.75,AU,1612159392
Ginda,30.6945,78.4932,16.3,27,0,2.81,IN,1612159514
Saint-François,46.4154,3.9054,9.0,93,75,3.09,FR,1612159515
Mataura,-46.1927,168.8643,21.5,56,70,2.76,NZ,1612159515
Jinji,23.2281,110.8261,28.7,34,97,1.68,CN,1612159516
Hermanus,-34.4187,19.2345,16.67,71,99,1.34,ZA,1612159516
West Bay,19.3667,-81.4167,25.0,88,61,0.89,KY,1612159188
Sainte-Marie,-20.8968,55.5496,30.0,58,0,10.8,RE,1612159517
Butaritari,3.0707,172.7902,27.34,82,69,6.18,KI,1612159517
Lata,40.1629,-8.3327,13.89,98,90,1.48,PT,1612159518
Port Hedland,-20.3167,118.5667,27.0,94,90,9.77,AU,1612159518
Angoche,-16.2325,39.9086,28.32,71,86,5.85,MZ,1612159307
Chālūs,36.655,51.4204,11.0,71,20,2.06,IR,1612159519
Gizo Government Station,-8.103,156.8419,29.21,77,58,8.97,SB,1612159519
Ténenkou,14.4572,-4.9169,18.43,23,71,4.29,ML,1612159519
Araouane,18.9048,-3.5265,16.55,25,40,4.1,ML,1612159521
Provideniya,64.3833,-173.3,-17.5,90,100,11.75,RU,1612159521
Ternate,0.8,127.4,28.07,65,100,2.14,ID,1612159521
Xaçmaz,41.4635,48.806,7.18,72,22,2.0,AZ,1612159522
Acapulco de Juárez,16.8634,-99.8901,24.08,80,2,2.01,MX,1612159237
Santiago de Cao,-7.9589,-79.2392,20.98,80,17,4.97,PE,1612159522
Basco,20.4487,121.9702,22.67,79,6,8.01,PH,1612159523
Ilulissat,69.2167,-51.1,-13.0,61,75,1.03,GL,1612159523
Upernavik,72.7868,-56.1549,-15.15,93,100,3.07,GL,1612159523
Kavieng,-2.5744,150.7967,29.2,78,100,5.78,PG,1612159524
Lorengau,-2.0226,147.2712,27.73,82,100,3.95,PG,1612159524
Beringovskiy,63.05,179.3167,-8.07,97,100,14.83,RU,1612159524
Preston,53.7667,-2.7167,-0.56,91,72,3.25,GB,1612159310
Radzyń Podlaski,51.7833,22.6167,-20.0,84,90,1.54,PL,1612159525
Tsaratanana,-16.7833,47.65,27.64,64,4,2.92,MG,1612159525
Esperance,-33.8667,121.9,26.0,38,1,10.29,AU,1612159525
Srīvardhan,18.0333,73.0167,31.41,36,0,0.4,IN,1612159526
Harper,4.375,-7.7169,25.54,89,6,3.16,LR,1612159526
Bambous Virieux,-20.3428,57.7575,27.22,94,75,6.69,MU,1612159526
Puerto Ayora,-0.7393,-90.3518,25.56,91,26,2.24,EC,1612159526
Lebu,-37.6167,-73.65,13.69,86,38,6.12,CL,1612159527
Karpathos,35.507,27.2132,17.0,88,40,11.32,GR,1612159527
Lavrentiya,65.5833,-171.0,-21.03,85,100,8.2,RU,1612159527
Carnarvon,-24.8667,113.6333,35.0,46,6,8.75,AU,1612159527
Vangaindrano,-23.35,47.6,28.61,74,43,1.69,MG,1612159528
Limbang,4.75,115.0,29.0,74,75,6.17,MY,1612159528
Avarua,-21.2078,-159.775,27.0,78,20,1.54,CK,1612159529
Barrow,71.2906,-156.7887,-26.0,76,75,3.6,US,1612159529
New Norfolk,-42.7826,147.0587,20.0,52,100,0.89,AU,1612159529
Aloleng,16.1307,119.7824,27.81,55,9,3.21,PH,1612159530
Punta Arenas,-53.15,-70.9167,11.0,71,20,11.32,CL,1612159530
Khani,41.9563,42.9566,9.0,61,0,4.12,GE,1612159530
Nuuk,64.1835,-51.7216,-7.0,79,90,2.57,GL,1612159531
Castro,-24.7911,-50.0119,17.78,95,99,1.07,BR,1612159531
Morehead,37.2711,-87.1764,1.11,80,90,4.12,US,1612159531
Mar del Plata,-38.0023,-57.5575,18.0,72,75,6.17,AR,1612159532
Chui,-33.6971,-53.4616,21.12,90,94,4.53,UY,1612159532
Byron Bay,-28.65,153.6167,27.0,57,40,5.66,AU,1612159532
Denpasar,-8.65,115.2167,31.0,70,20,5.66,ID,1612159246
Ahipara,-35.1667,173.1667,19.53,67,26,3.28,NZ,1612159533
Husavik,66.0449,-17.3389,-22.0,84,0,2.57,IS,1612159533
Codrington,-38.2667,141.9667,17.19,70,84,5.66,AU,1612159533
Brae,60.3964,-1.353,-2.0,74,61,3.6,GB,1612159534
Port Lincoln,-34.7333,135.8667,18.34,59,22,8.16,AU,1612159534
Manacapuru,-3.2997,-60.6206,25.0,88,40,3.09,BR,1612159365
Belaya Gora,68.5333,146.4167,-34.02,85,99,1.14,RU,1612159535
Falmouth,50.1544,-5.0711,9.0,100,75,2.57,GB,1612159243
Cidreira,-30.1811,-50.2056,22.73,95,100,5.71,BR,1612159536
Ellisras,-23.6649,27.7443,23.19,76,99,4.93,ZA,1612159536
Fortuna,40.5982,-124.1573,13.33,82,90,10.29,US,1612159536
Waitati,-45.75,170.5667,18.33,62,86,8.49,NZ,1612159537
Yellowknife,62.456,-114.3525,-22.78,77,75,1.54,CA,1612159281
Amlapura,-8.45,115.6167,31.0,70,20,5.66,ID,1612159537
Souillac,-20.5167,57.5167,26.0,94,75,6.69,MU,1612159537
Yumen,40.2833,97.2,-0.69,63,0,3.6,CN,1612159538
Ponta do Sol,32.6667,-17.1,13.89,44,1,1.34,PT,1612159538
Mayor Pablo Lagerenza,-19.9309,-60.7718,25.21,78,17,2.14,PY,1612159539
Omboué,-1.5746,9.2618,24.36,91,78,2.29,GA,1612159539
Kaitangata,-46.2817,169.8464,18.89,67,5,5.36,NZ,1612159539
Kapaa,22.0752,-159.319,23.0,73,20,5.66,US,1612159434
Soubre,5.7856,-6.6083,22.68,97,27,0.95,CI,1612159541
Khorramshahr,30.4397,48.1664,12.0,66,0,1.03,IR,1612159541
Jamestown,42.097,-79.2353,-3.33,86,90,4.12,US,1612159386
Enid,36.3956,-97.8784,0.0,86,1,3.04,US,1612159542
Dingle,10.9995,122.6711,28.12,73,43,5.61,PH,1612159542
Cap Malheureux,-19.9842,57.6142,27.22,86,19,3.13,MU,1612159543
Kruisfontein,-34.0033,24.7314,17.22,92,65,0.45,ZA,1612159543
Lüderitz,-26.6481,15.1594,19.36,74,4,8.01,NA,1612159544
Evensk,61.95,159.2333,-23.84,84,100,10.05,RU,1612159545
Albany,42.6001,-73.9662,-10.0,55,100,1.29,US,1612159245
Plouzané,48.3833,-4.6167,11.0,93,90,5.14,FR,1612159546
Isangel,-19.55,169.2667,28.0,78,75,1.54,VU,1612159546
Krasnoarmiys'k,48.282,37.1758,3.66,94,100,4.38,UA,1612159547
Ruyigi Province,-3.45,30.3167,18.53,88,98,0.67,BI,1612159548
Gazli,40.1333,63.45,9.83,49,35,1.44,UZ,1612159548
Belmonte,-15.8631,-38.8828,23.0,88,40,1.54,BR,1612159548
Anadyr,64.75,177.4833,-13.0,92,90,23.0,RU,1612159549
Srednekolymsk,67.45,153.6833,-29.51,87,100,3.34,RU,1612159549
Kabalo,-6.05,26.9167,22.32,94,100,0.54,CD,1612159550
Qaanaaq,77.484,-69.3632,-20.64,87,100,1.09,GL,1612159550
Baker City,44.7749,-117.8344,7.0,49,90,7.72,US,1612159550
Saint Anthony,45.0205,-93.218,-1.0,74,90,4.63,US,1612159551
Severnoye,56.3491,78.3619,-15.58,87,38,1.7,RU,1612159551
Umluj,25.0213,37.2685,24.41,27,0,1.31,SA,1612159299
Mossamedes,-15.1961,12.1522,22.35,78,93,2.27,AO,1612159552
Marawi,7.9986,124.2928,26.11,87,100,2.24,PH,1612159552
Belle Fourche,44.6714,-103.8522,0.0,59,1,3.6,US,1612159552
Zliten,32.4674,14.5687,13.38,61,1,5.86,LY,1612159553
Bakaly,55.1789,53.8028,-1.67,97,100,6.32,RU,1612159553
Tuatapere,-46.1333,167.6833,18.5,67,47,2.13,NZ,1612159553
Tigil',57.8,158.6667,-18.1,93,100,5.45,RU,1612159554
Vaini,-21.2,-175.2,26.0,94,90,4.12,TO,1612159554
Khatanga,71.9667,102.5,-37.39,82,1,4.31,RU,1612159554
Semīrom,31.4167,51.5667,1.43,65,0,0.33,IR,1612159555
Xining,36.6167,101.7667,-2.06,54,0,1.93,CN,1612159555
Oni,42.5794,43.4425,6.03,61,44,1.7,GE,1612159556
Coyhaique,-45.5752,-72.0662,13.0,67,0,2.57,CL,1612159556
Nikolskoye,59.7035,30.7861,-5.0,86,75,5.0,RU,1612159556
Sangar,63.9242,127.4739,-42.13,78,78,1.38,RU,1612159557
Caravelas,-17.7125,-39.2481,23.11,88,38,1.75,BR,1612159557
Vaitape,-16.5167,-151.75,27.33,75,86,4.74,PF,1612159373
Adrar,20.5022,-10.0711,16.21,30,64,3.82,MR,1612159558
Yerbogachën,61.2767,108.0108,-32.78,82,66,3.01,RU,1612159558
Eureka,40.8021,-124.1637,13.33,76,90,4.63,US,1612159559
Hearst,49.6835,-83.6665,-18.0,85,100,2.06,CA,1612159559
Thinadhoo,0.5333,72.9333,28.06,78,1,4.69,MV,1612159560
Champasak,14.75,106.0,35.36,28,48,1.06,LA,1612159560
Kaputa,-8.4689,29.6619,21.68,84,100,2.47,ZM,1612159561
Tegul'det,57.3064,88.1667,-21.6,88,100,2.68,RU,1612159562
Ambam,2.3833,11.2833,21.01,94,91,0.95,CM,1612159563
Hasaki,35.7333,140.8333,11.0,71,75,2.06,JP,1612159563
Sibay,52.7181,58.6658,-8.52,96,89,2.83,RU,1612159564
Jalu,29.0331,21.5482,14.22,33,0,4.99,LY,1612159564
Saskylakh,71.9167,114.0833,-34.95,83,75,3.51,RU,1612159565
Bad Münstereifel,50.55,6.7667,2.22,95,100,2.43,DE,1612159565
Paso de los Toros,-32.8167,-56.5167,20.31,89,97,3.99,UY,1612159566
Constitución,-35.3333,-72.4167,13.35,88,2,3.42,CL,1612159556
San Patricio,28.017,-97.5169,16.0,47,1,8.75,US,1612159566
Kincardine,56.0667,-3.7167,-1.11,100,75,0.51,GB,1612159567
Makkah al Mukarramah,21.4267,39.8261,23.6,43,5,0.68,SA,1612159382
Tessalit,20.1986,1.0114,14.35,32,0,3.37,ML,1612159568
Tabatinga,-4.2525,-69.9381,24.0,100,90,1.03,BR,1612159568
Verkhniy Avzyan,53.5289,57.5372,-4.76,96,100,2.21,RU,1612159569
Saint-Philippe,-21.3585,55.7679,31.0,62,0,10.8,RE,1612159569
Vao,-22.6667,167.4833,24.36,77,99,10.87,NC,1612159570
George Town,5.4112,100.3354,32.0,51,20,3.6,MY,1612158998
Katsuura,35.1333,140.3,9.0,53,20,1.54,JP,1612159570
Alugan,12.2188,125.4808,26.75,84,93,6.39,PH,1612159571
Gandai,21.6667,81.1,24.37,18,0,2.47,IN,1612159571
Neryungri,56.6709,124.6491,-37.26,77,100,5.67,RU,1612159572
Asilah,35.465,-6.0348,14.0,94,75,3.6,MA,1612159573
Bluff,-46.6,168.3333,16.51,71,45,6.52,NZ,1612159573
Coos Bay,43.3665,-124.2179,9.44,100,90,1.54,US,1612159573
São Lourenço,-22.1164,-45.0544,18.33,95,100,0.46,BR,1612159574
Tiksi,71.6872,128.8694,-32.62,86,100,3.15,RU,1612159574
East London,-33.0153,27.9116,18.0,94,90,6.17,ZA,1612159436
Colesberg,-30.72,25.0972,17.78,62,0,9.61,ZA,1612159575
Sarkand,45.41,79.9186,3.81,71,95,1.15,KZ,1612159575
Waingapu,-9.6567,120.2641,28.56,76,69,6.74,ID,1612159575
Zhigansk,66.7697,123.3711,-41.92,78,52,2.77,RU,1612159576
Touros,-5.1989,-35.4608,26.0,78,40,2.06,BR,1612159576
Bandarbeyla,9.4942,50.8122,24.37,60,30,9.13,SO,1612159576
Hong Kong,22.2855,114.1577,24.0,57,20,3.6,HK,1612159221
Jumla,29.2747,82.1838,11.78,29,0,2.66,NP,1612159577
Scalea,39.813,15.7956,10.56,88,99,0.45,IT,1612159577
Tura,25.5198,90.2201,23.6,32,0,1.44,IN,1612159578
Dublin,37.7021,-121.9358,13.0,76,40,1.34,US,1612159578
Necochea,-38.5473,-58.7368,9.44,83,83,2.42,AR,1612159579
San Cristobal,7.7669,-72.225,18.78,79,99,1.44,VE,1612159579
Viedma,-40.8135,-62.9967,14.3,68,34,3.3,AR,1612159565
Santiago,-33.4569,-70.6483,17.22,82,20,2.06,CL,1612159134
Cape Town,-33.9258,18.4232,18.89,63,0,7.72,ZA,1612159123
Payakumbuh,-0.2202,100.6308,27.22,64,97,1.49,ID,1612159580
Yar-Sale,66.8333,70.8333,-20.74,90,100,5.18,RU,1612159580
Salekhard,66.53,66.6019,-23.49,90,100,0.76,RU,1612159329
Broken Hill,-31.95,141.4333,32.0,15,75,7.2,AU,1612159581
Carahue,-38.7,-73.1667,12.0,100,75,1.03,CL,1612159581
Maceió,-9.6658,-35.7353,23.0,94,40,2.06,BR,1612159582
Qandala,11.472,49.8728,23.04,51,0,3.41,SO,1612159582
Antón Lizardo,19.05,-95.9833,24.0,83,20,7.72,MX,1612159583
Rio Grande City,26.3798,-98.8203,16.11,43,0,2.68,US,1612159583
Paamiut,61.994,-49.6678,-7.0,88,0,7.76,GL,1612159583
Carballo,43.213,-8.691,12.78,85,99,0.89,ES,1612159584
Presidencia Roque Sáenz Peña,-26.7852,-60.4388,21.67,95,93,1.79,AR,1612159584
Poum,-20.2333,164.0167,26.69,72,100,9.66,NC,1612159584
Bubaque,11.2833,-15.8333,25.68,70,36,1.46,GW,1612159585
Airai,-8.9266,125.4092,21.69,79,91,2.93,TL,1612159585
Kushiro,42.975,144.3747,-2.0,74,20,7.2,JP,1612159585
Puerto Madero,14.7208,-92.4215,24.56,77,0,1.91,MX,1612159585
Port Elizabeth,-33.918,25.5701,19.0,72,0,4.12,ZA,1612159585
Cherskiy,68.75,161.3,-20.21,86,98,3.25,RU,1612159586
Alofi,-19.0595,-169.9187,24.0,94,93,4.63,NU,1612159586
Pakxan,18.3778,103.6601,31.67,42,47,1.73,LA,1612159586
Palu,-0.8917,119.8707,28.24,76,93,2.09,ID,1612159586
Namatanai,-3.6667,152.4333,28.81,76,56,3.11,PG,1612159587
Conakry,9.538,-13.6773,24.43,74,14,2.64,GN,1612159392
Corsicana,32.0954,-96.4689,7.22,65,1,3.09,US,1612159587
Ugoofaaru,5.6667,73.0,28.05,73,70,5.7,MV,1612159587
Riosucio,5.4216,-75.7032,15.56,88,100,0.25,CO,1612159588
Alice Springs,-23.7,133.8833,37.0,20,0,7.72,AU,1612159588
Margate,51.3813,1.3862,5.0,91,100,0.89,GB,1612159588
Klaksvík,62.2266,-6.589,-1.0,74,75,0.51,FO,1612159589
Tamandaré,-8.7597,-35.1047,24.97,82,100,3.36,BR,1612159589
Yulara,-25.2406,130.9889,36.0,19,90,6.69,AU,1612159480
Kandrian,-6.2167,149.55,29.98,65,89,5.61,PG,1612159589
Leningradskiy,69.3833,178.4167,-27.33,87,100,6.74,RU,1612159590
Tilichiki,60.4667,166.1,-15.44,95,100,6.13,RU,1612159590
El Rosario,24.2556,-107.1828,16.0,88,40,1.54,MX,1612159590
Marabu,4.4148,114.0089,30.0,74,40,3.6,MY,1612159322
Lagoa,39.05,-27.9833,16.64,90,100,13.16,PT,1612159591
Hilo,19.7297,-155.09,22.0,78,75,2.06,US,1612159591
Oddur,4.1213,43.8894,23.45,57,1,8.75,SO,1612159591
Moyale,3.5167,39.0584,24.4,27,61,6.02,KE,1612159591
Muskegon,43.3,-86.1334,-2.0,59,1,4.12,US,1612159367
Santa Maria,-29.6842,-53.8069,19.97,92,0,1.54,BR,1612159475
Goderich,43.7501,-81.7165,-8.0,62,100,6.17,CA,1612159292
Berlevåg,70.8578,29.0864,-7.0,79,75,4.12,NO,1612159592
Ýpsonas,34.6884,32.9574,15.0,82,20,4.12,CY,1612159593
Mackay,-21.15,149.2,29.0,65,75,7.72,AU,1612159376
Teberda,43.4456,41.7448,2.84,72,86,4.32,RU,1612159593
Nanortalik,60.1432,-45.2371,0.21,90,100,1.39,GL,1612159594
Ambon City,-3.6954,128.1814,33.0,55,40,4.12,ID,1612159594
Tessaoua,13.7574,7.9874,17.62,24,50,3.37,NE,1612159594
Ashland,40.8167,-82.2665,-1.0,93,90,4.12,US,1612159594
Port-Gentil,-0.7193,8.7815,26.96,77,100,1.26,GA,1612159595
Ketchikan,55.3422,-131.6461,1.0,100,90,1.24,US,1612159595
Walvis Bay,-22.9575,14.5053,18.89,88,92,1.54,NA,1612159414
Locri,38.2414,16.2623,11.67,97,84,3.58,IT,1612159596
Hammerfest,70.6634,23.6821,-3.0,86,75,1.03,NO,1612159353
Ucluelet,48.9329,-125.5528,6.11,92,97,4.02,CA,1612159365
Ribeira Grande,38.5167,-28.7,17.4,88,97,15.94,PT,1612159597
Askiz,53.1319,90.5264,-22.3,87,53,0.82,RU,1612159597
Bend,44.0582,-121.3153,4.44,87,1,4.74,US,1612159597
Rebrikha,53.0733,82.3408,-10.51,92,99,2.03,RU,1612159598
Pisco,-13.7,-76.2167,20.0,77,0,6.17,PE,1612159598
Aitape,-3.1374,142.3475,25.41,89,100,3.73,PG,1612159598
Coahuayana Viejo,18.7333,-103.6833,21.96,87,0,1.53,MX,1612159599
Talcahuano,-36.7167,-73.1167,14.0,88,0,3.09,CL,1612159599
Ürümqi,43.801,87.6005,-10.0,79,62,2.0,CN,1612159330
Poim,53.0264,43.1872,-8.39,97,58,4.95,RU,1612159599
Orlik,52.5178,99.825,-21.59,74,1,0.69,RU,1612159600
Camacha,33.0833,-16.3333,16.0,88,40,2.06,PT,1612159600
Mandalgovi,45.7625,106.2708,-17.89,76,0,6.18,MN,1612159601
Atar,20.5169,-13.0499,19.03,26,89,3.82,MR,1612159601
Batagay-Alyta,67.8006,130.4114,-37.59,81,100,0.48,RU,1612159601
Kaeo,-35.1,173.7833,22.22,65,20,4.02,NZ,1612159602
São João da Barra,-21.6403,-41.0511,24.58,82,94,7.73,BR,1612159602
Abhā,18.2164,42.5053,17.0,59,0,3.09,SA,1612159603
Paredon,16.0333,-93.8667,25.35,63,1,7.55,MX,1612159603
Spokane,47.6166,-117.3677,5.0,75,90,1.54,US,1612159520
Arona,28.0996,-16.681,17.78,77,20,2.57,ES,1612159604
Maniitsoq,65.4167,-52.9,-10.91,87,42,5.54,GL,1612159605
Arrondissement de Brive-la-Gaillarde,45.25,1.5,10.56,97,100,3.13,FR,1612159605
Iqaluit,63.7506,-68.5145,-16.0,72,75,8.75,CA,1612159606
Kajaani,64.2273,27.7285,-11.0,85,90,1.03,FI,1612159606
General Pico,-35.6566,-63.7568,15.78,59,100,1.34,AR,1612159606
Epiniana,39.1429,21.6134,6.11,87,87,0.89,GR,1612159607
Champerico,14.3,-91.9167,18.33,92,0,0.89,GT,1612159607
Guarapari,-20.6667,-40.4975,25.0,83,0,2.57,BR,1612159607
Sirte,31.2089,16.5887,15.12,71,34,5.87,LY,1612159608
Kawalu,-7.3817,108.2082,31.91,56,96,0.39,ID,1612159609
Narsaq,60.9167,-46.05,1.0,47,20,1.54,GL,1612159609
Oranjemund,-28.55,16.4333,18.4,86,29,2.51,NA,1612159610
Torbay,47.6666,-52.7314,-1.67,93,90,6.69,CA,1612159398
Barra Patuca,15.8,-84.2833,24.5,86,8,2.53,HN,1612159611
Barra,-11.0894,-43.1417,23.67,73,35,2.72,BR,1612159611
Itamarandiba,-17.8572,-42.8589,16.77,99,99,0.64,BR,1612159611
Verkhoyansk,67.5447,133.385,-44.53,74,73,0.86,RU,1612159612
Geraldton,-28.7667,114.6,41.0,11,26,7.2,AU,1612159612
Cayenne,4.9333,-52.3333,26.0,83,90,3.6,GF,1612159522
Haapiti,-17.5667,-149.8667,28.0,65,75,3.09,PF,1612159613
Lethem,3.3803,-59.7968,24.04,72,100,5.9,GY,1612159613
Mustafakemalpaşa,40.0353,28.4117,14.0,50,0,5.14,TR,1612159614
Meulaboh,4.1363,96.1285,29.74,63,88,2.09,ID,1612159614
Repatriación,-25.5333,-55.95,22.29,97,81,2.5,PY,1612159615
Bayan,46.0833,127.4,-17.37,92,100,6.85,CN,1612159616
Bonavista,48.6499,-53.1147,-1.67,93,100,2.06,CA,1612159616
Mezhdurechenskiy,59.6,65.9333,-10.49,95,71,4.73,RU,1612159617
Ledyard Center,41.4398,-72.0142,-2.78,74,90,6.69,US,1612159617
Moscow,55.7522,37.6156,-3.89,80,75,7.0,RU,1612159611
Salinópolis,-0.6136,-47.3561,26.12,88,55,4.88,BR,1612159424
Lewistown,40.5992,-77.5714,-3.89,100,90,2.57,US,1612159618
Pīpri,19.8,75.5333,25.0,33,0,2.57,IN,1612159619
Vestmannaeyjar,63.4427,-20.2734,0.9,86,67,8.96,IS,1612159619
Arlit,18.7369,7.3853,13.91,29,0,2.12,NE,1612159620
Sioux Lookout,50.1001,-91.917,-5.0,93,90,2.06,CA,1612159620
Mahébourg,-20.4081,57.7,26.0,94,75,6.69,MU,1612159621
Shimoda,34.6667,138.95,12.0,71,40,1.54,JP,1612159622
Trincomalee,8.5711,81.2335,27.0,78,1,7.93,LK,1612159622
Palmer,42.1584,-72.3287,-5.56,63,90,2.06,US,1612159623
Ust-Nera,64.5667,143.2,-34.65,74,100,2.85,RU,1612159623
Rena,61.1348,11.3641,-13.04,89,5,1.59,NO,1612159624
Gravdal,68.1214,13.5031,-6.0,93,0,7.64,NO,1612159625
Sanmenxia,34.7747,111.1814,12.98,29,0,4.44,CN,1612159625
Steinbach am Taunus,50.1667,8.5667,3.89,93,75,4.63,DE,1612159626
Ivdel',60.6911,60.4206,-6.17,96,100,5.39,RU,1612159627
Zhuhai,22.2769,113.5678,27.22,68,20,1.03,CN,1612159442
Voh,-20.9667,164.7,26.3,68,100,3.28,NC,1612159627
Batagay,67.6333,134.6333,-45.81,76,76,0.54,RU,1612159628
Ancud,-41.8697,-73.8203,12.78,81,0,2.57,CL,1612159629
Constantine,36.365,6.6147,10.0,81,90,4.63,DZ,1612159629
Tonantins,-2.8731,-67.8022,23.14,97,100,0.53,BR,1612159630
Kaseda-shirakame,31.4167,130.3167,16.0,63,75,5.14,JP,1612159630
Luanda,-8.8368,13.2343,26.0,83,40,1.54,AO,1612159378
Tomé,-36.6167,-72.95,14.0,88,0,3.09,CL,1612159465
High Prairie,55.4334,-116.4858,-12.0,79,98,4.12,CA,1612159308
Charter Township of Clinton,42.587,-82.9199,-3.33,100,90,6.69,US,1612159430
Issia,6.4922,-6.5856,22.26,98,50,1.12,CI,1612159631
Neuquén,-38.9516,-68.0591,16.0,63,0,1.03,AR,1612159632
Imbituba,-28.24,-48.6703,24.0,94,75,1.54,BR,1612159632
Saint-Joseph,-21.3667,55.6167,31.0,62,0,10.8,RE,1612159632
Porto-Novo,6.4965,2.6036,27.0,94,40,0.51,BJ,1612159633
Cotonou,6.3654,2.4183,27.0,94,40,0.51,BJ,1612159633
Mayo,38.8876,-76.5119,-1.0,100,90,8.23,US,1612159634
Port Hardy,50.6996,-127.4199,6.0,93,90,3.09,CA,1612159388
Nouadhibou,20.931,-17.0347,17.0,82,0,6.69,MR,1612159634
Talara,-4.5772,-81.2719,23.52,81,95,6.43,PE,1612159635
Hithadhoo,-0.6,73.0833,27.98,78,27,4.71,MV,1612159635
Bethel,41.3712,-73.414,-6.11,73,90,4.12,US,1612159636
Avera,33.194,-82.5271,7.0,93,90,4.27,US,1612159636
Billings Metropolitan Area,45.7833,-108.5007,2.0,38,1,5.66,US,1612159636
Kalabo,-14.97,22.6814,19.97,92,100,2.83,ZM,1612159636
Khandyga,62.6667,135.6,-44.2,76,85,0.37,RU,1612159637
Lumeje,-11.55,20.7833,19.38,88,100,3.0,AO,1612159637
Kangaatsiaq,68.3065,-53.4641,-15.72,92,100,5.43,GL,1612159638
Kahului,20.8947,-156.47,22.0,73,20,2.57,US,1612159638
Burnie,-41.0667,145.9167,17.22,66,100,7.6,AU,1612159639
Buenos Aires,-34.6132,-58.3772,20.0,88,90,2.57,AR,1612159588
Cairns,-16.9167,145.7667,30.56,66,75,6.69,AU,1612159640
Pacific Grove,36.6177,-121.9166,11.67,82,1,2.61,US,1612159640
Mapiripán,2.8892,-72.1256,23.26,88,99,1.76,CO,1612159641
Pontianak,-0.0333,109.3333,31.0,70,75,2.06,ID,1612159641
Nicoya,10.1483,-85.452,23.0,68,0,2.57,CR,1612159642
Abu Samrah,35.3029,37.1841,7.66,93,38,3.35,SY,1612159642
Hofn,64.2539,-15.2082,-2.6,85,100,4.76,IS,1612159643
Kenai,60.5544,-151.2583,-17.22,84,1,1.54,US,1612159643
Colares,38.7992,-9.4469,15.56,88,91,3.93,PT,1612159643
Aykhal,66.0,111.5,-39.72,78,100,4.38,RU,1612159644
Marrakesh,31.6315,-8.0083,9.0,81,0,2.57,MA,1612159644
Mabaruma,8.2,-59.7833,21.46,90,23,1.09,GY,1612159644
Aktas,49.7789,72.9608,-14.0,72,0,2.0,KZ,1612159644
Almaznyy,48.0448,40.045,3.0,100,90,5.0,RU,1612159645
Paita,-5.0892,-81.1144,23.33,77,91,5.1,PE,1612159645
Witu,-2.3889,40.4382,27.0,74,90,1.94,KE,1612159645
Nerópolis,-16.4064,-49.2186,21.0,88,75,1.54,BR,1612159646
Anamur,36.0751,32.8369,11.0,71,20,2.57,TR,1612159646
Bengkulu,-3.8004,102.2655,29.8,62,69,3.56,ID,1612159430
Cape Canaveral,28.4058,-80.6048,19.44,88,40,6.69,US,1612159647
Storsteinnes,69.2408,19.2344,-3.0,92,40,0.85,NO,1612159647
Muros,42.7762,-9.0603,14.44,86,92,0.89,ES,1612159647
Fredericton,45.9454,-66.6656,-13.0,85,90,1.03,CA,1612159534
Hualmay,-11.0964,-77.6139,20.95,79,94,3.35,PE,1612159648
Kholmogory,64.2229,41.656,-10.0,92,75,1.0,RU,1612159648
Pevek,69.7008,170.3133,-27.08,86,58,0.8,RU,1612159648
Lugovoy,42.9472,72.7644,4.0,90,100,0.88,KZ,1612159648
San Ramon,37.7799,-121.978,12.22,76,40,1.53,US,1612159649
Altay,47.8667,88.1167,-4.47,80,46,0.76,CN,1612159649
Cafarnaum,-11.6936,-41.4683,19.62,90,70,3.04,BR,1612159649
Merauke,-8.4667,140.3333,28.11,81,98,6.96,ID,1612159354
Kpandu,6.9954,0.2931,24.94,83,0,1.93,GH,1612159650
Saldanha,-33.0117,17.9442,18.12,74,50,5.73,ZA,1612159650
Kisangani,0.5167,25.2,23.83,77,97,0.52,CD,1612159650
Baijiantan,45.6333,85.1833,-10.74,90,100,1.83,CN,1612159632
Newtownards,54.5924,-5.6909,3.33,81,75,3.09,GB,1612159651
Vitim,59.4511,112.5578,-32.67,79,100,4.3,RU,1612159651
Praia da Vitória,38.7333,-27.0667,18.0,100,40,14.33,PT,1612159652
Henties Bay,-22.116,14.2845,19.44,87,100,0.89,NA,1612159652
Westport,41.1415,-73.3579,-4.0,68,90,7.2,US,1612159652
Kalininsk,51.5,44.4758,-5.72,97,100,2.62,RU,1612159652
Coquimbo,-29.9533,-71.3436,17.0,94,90,2.06,CL,1612159653
Ballina,-28.8667,153.5667,27.0,57,40,5.66,AU,1612159653
Severo-Kuril'sk,50.6789,156.125,-5.81,93,98,18.97,RU,1612159654
Tocopilla,-22.092,-70.1979,19.05,69,17,2.2,CL,1612159654
Laas,46.6166,10.7002,2.78,93,75,0.76,IT,1612159654
Sumbe,-11.2061,13.8437,24.87,75,95,1.56,AO,1612159655
Klyuchi,52.2667,79.1667,-11.38,94,100,2.39,RU,1612159655
Grindavik,63.8424,-22.4338,-3.0,68,0,5.66,IS,1612159655
Clyde River,70.4692,-68.5914,-20.0,84,90,12.86,CA,1612159656
Manali,13.1667,80.2667,29.0,58,20,3.09,IN,1612159656
Vilhena,-12.7406,-60.1458,20.31,95,49,0.6,BR,1612159656
Longonjo,-12.9067,15.2533,16.72,72,100,0.62,AO,1612159657
Winton,37.3894,-120.6133,11.67,76,1,1.54,US,1612159657
Luganville,-15.5333,167.1667,24.03,88,100,3.23,VU,1612159658
Carutapera,-1.195,-46.02,25.14,89,57,3.25,BR,1612159658
Jesup,31.6074,-81.8854,15.0,94,90,1.06,US,1612159658
De Aar,-30.6497,24.0123,18.82,60,0,8.26,ZA,1612159659
Yei,4.095,30.6779,27.58,27,67,1.04,SS,1612159659
La Ronge,55.1001,-105.2842,-8.0,86,17,2.06,CA,1612159659
Muyezerskiy,63.9333,31.65,-15.02,95,96,0.55,RU,1612159660
Kapoeta,4.7717,33.5903,30.58,23,95,11.82,SS,1612159660
Faya,18.3851,42.4509,17.0,59,0,3.09,SA,1612159661
Itaituba,-4.2761,-55.9836,25.0,94,20,0.38,BR,1612159565
Faanui,-16.4833,-151.75,27.35,75,86,4.75,PF,1612159661
Cabildo,-38.4842,-61.8954,11.67,86,98,4.12,AR,1612159662
Arauca,7.0847,-70.7591,24.45,75,98,1.68,CO,1612159662
Arica,-18.475,-70.3042,21.0,68,90,2.06,CL,1612159439
Launceston,-41.45,147.1667,21.67,64,100,5.66,AU,1612159491
Jiexiu,37.0244,111.9125,5.82,49,0,5.68,CN,1612159663
Sola,-13.8833,167.55,26.01,78,99,2.1,VU,1612159664
Perovo,44.9333,34.0667,12.22,43,100,4.02,UA,1612159664
Kathmandu,27.7167,85.3167,15.0,44,20,1.54,NP,1612159665
Chegem,43.2833,43.1333,2.0,75,28,4.72,RU,1612159665
Barra do Bugres,-15.0725,-57.1811,22.43,90,70,1.39,BR,1612159665
Pangnirtung,66.1451,-65.7125,-24.08,84,100,3.15,CA,1612159666
Ayorou,14.7308,0.9174,18.09,23,58,4.32,NE,1612159666
Artyom,40.4723,50.333,9.0,76,20,2.06,AZ,1612159667
Bela,25.9333,81.9833,20.31,31,0,2.11,IN,1612159668
New Glasgow,45.5834,-62.6486,-2.0,80,98,5.14,CA,1612159559
Mogadouro,41.3403,-6.7119,7.78,90,41,1.79,PT,1612159668
Puerto Nariño,-3.7703,-70.3831,24.0,100,90,1.03,CO,1612159668
Daru,-9.0763,143.2092,29.6,73,74,4.46,PG,1612159444
Inhambane,-23.865,35.3833,28.07,77,6,4.45,MZ,1612159669
Varhaug,58.6147,5.6457,-3.33,93,40,2.06,NO,1612159670
Yangi Marg`ilon,40.4272,71.7189,9.0,57,75,2.84,UZ,1612159670
General Higinio Morínigo,-25.95,-55.9167,20.16,100,26,1.08,PY,1612159671
Dekar,-21.5333,21.9333,21.11,84,98,3.12,BW,1612159671
Broome,42.2506,-75.833,-5.56,93,90,2.57,US,1612159672
Bulgan,48.8125,103.5347,-16.74,82,0,1.5,MN,1612159672
Iskateley,67.6803,53.1512,-8.38,97,100,6.19,RU,1612159673
Zarya,55.7553,38.0958,-3.0,74,20,5.0,RU,1612159673
Xingyi,24.1877,102.817,18.16,33,52,6.12,CN,1612159674
Vila Franca do Campo,37.7167,-25.4333,17.0,88,75,10.29,PT,1612159674
Ulladulla,-35.35,150.4667,25.0,69,75,5.14,AU,1612159570
Bay Roberts,47.5999,-53.2648,-1.67,93,90,6.69,CA,1612159675
Mogadishu,2.0371,45.3438,25.0,65,0,5.14,SO,1612159675
São Filipe,14.8961,-24.4956,22.31,71,0,3.85,CV,1612159676
Tianjin,39.1422,117.1767,3.0,11,0,12.0,CN,1612159555
Longyearbyen,78.2186,15.6401,-13.0,36,75,6.17,SJ,1612159676
Bosaso,11.2842,49.1816,24.0,69,20,5.14,SO,1612159677
Tak,16.5833,98.8333,30.0,48,20,2.06,TH,1612159677
Bellary,15.15,76.9333,29.1,30,1,5.63,IN,1612159677
Itaúna,-20.0753,-44.5764,19.34,91,95,1.17,BR,1612159678
Poronaysk,49.2167,143.1167,-17.7,89,96,0.98,RU,1612159679
Raymondville,26.4815,-97.7831,15.56,54,1,2.57,US,1612159679
Fershampenuaz,53.5202,59.8117,-9.34,96,93,5.22,RU,1612159680
Wewak,-3.5534,143.6268,25.0,89,100,2.86,PG,1612159680
Wasilla,61.5814,-149.4394,-17.0,84,1,0.6,US,1612159557
Bonthe,7.5264,-12.505,23.87,90,1,1.69,SL,1612159681
Twin Falls,42.3505,-114.6445,0.0,93,1,4.42,US,1612159682
Fremont,37.5483,-121.9886,13.0,67,40,1.56,US,1612159082
Iwanuma,38.1047,140.8594,7.0,61,20,2.57,JP,1612159683
Pacifica,37.6138,-122.4869,13.33,71,75,3.32,US,1612159659
Kiyasovo,56.3491,53.1244,-6.52,97,68,6.5,RU,1612159684
Haines Junction,60.7522,-137.5108,-16.0,66,100,4.12,CA,1612159684
Chokurdakh,70.6333,147.9167,-27.3,88,100,5.05,RU,1612159685
Makakilo City,21.3469,-158.0858,23.0,68,1,1.54,US,1612159441
Anzio,41.4853,12.6179,7.78,96,32,0.45,IT,1612159686
Fort Nelson,58.8053,-122.7002,-22.0,77,90,2.03,CA,1612159686
Sisophon,13.5859,102.9737,33.21,30,28,2.81,KH,1612159687
Yel'nya,54.5786,33.1837,-6.31,97,99,4.07,RU,1612159687
Hay River,60.8156,-115.7999,-20.0,77,100,2.57,CA,1612159688
Alexandria,31.2156,29.9553,9.0,87,0,1.54,EG,1612159599
Barreirinha,-2.7933,-57.07,23.56,82,91,0.65,BR,1612159689
Jackson,42.4165,-122.8345,7.78,87,1,1.54,US,1612159394
Hokitika,-42.7167,170.9667,17.63,75,75,4.9,NZ,1612159689
Huarmey,-10.0681,-78.1522,20.84,79,76,3.12,PE,1612159690
Belfort,47.6333,6.8667,8.0,100,90,6.17,FR,1612159421
Talnakh,69.4865,88.3972,-25.89,82,100,3.68,RU,1612159691
Brezoi,45.338,24.2486,2.22,100,90,2.06,RO,1612159691
Nome,64.5011,-165.4064,-14.0,56,90,7.72,US,1612159405
Kutum,14.2,24.6667,16.75,27,0,3.14,SD,1612159692
Northam,51.0333,-4.2167,4.44,94,100,0.45,GB,1612159692
Guaymas,27.9333,-110.9,20.0,46,99,4.47,MX,1612159693
Lompoc,34.6391,-120.4579,11.67,82,1,0.67,US,1612159693
Bijie,27.3125,105.2942,7.55,64,98,2.03,CN,1612159693
Alghero,40.5589,8.3181,12.0,82,0,1.54,IT,1612159694
Lamar,33.6668,-95.5836,4.0,70,1,4.12,US,1612159694
Makat,47.6469,53.3463,0.35,96,100,2.1,KZ,1612159695
Shirokiy,49.758,129.523,-27.47,85,76,6.44,RU,1612159695
Songyuan,45.1171,124.8568,-19.03,90,100,5.83,CN,1612159696
São Miguel do Araguaia,-13.275,-50.1628,23.57,83,92,0.78,BR,1612159696
Istok,42.7808,20.4875,5.0,81,75,3.6,XK,1612159696
Ayan,56.45,138.1667,-29.87,71,91,5.58,RU,1612159697
Puerto Colombia,10.9878,-74.9547,25.0,83,0,5.66,CO,1612159697
Te Anau,-45.4167,167.7167,22.1,57,6,1.62,NZ,1612159580
Lusambo,-4.9667,23.45,23.75,80,77,0.52,CD,1612159698
Andenes,69.3143,16.1194,-1.0,93,75,11.32,NO,1612159698
Bara,10.3744,10.7288,17.39,30,34,1.69,NG,1612159699
Progreso,21.2833,-89.6667,22.0,78,1,3.09,MX,1612159700
Polyarny,69.1989,33.4478,-16.0,85,75,1.36,RU,1612159700
Iracoubo,5.4802,-53.2011,25.08,83,99,6.35,GF,1612159701
Half Moon Bay,37.4636,-122.4286,13.0,62,20,2.57,US,1612159539
Sawākin,19.1059,37.3321,22.07,77,99,3.46,SD,1612159701
Bulalacao,12.3254,121.3435,27.48,68,95,9.08,PH,1612159702
Nshamba,-1.7983,31.5511,20.7,71,89,1.09,TZ,1612159703
Acaponeta,22.4964,-105.3594,19.35,66,91,0.97,MX,1612159703
Fairbanks,64.8378,-147.7164,-23.0,76,1,1.46,US,1612159503
Singapore,1.2897,103.8501,31.0,58,75,6.69,SG,1612159385
Tsabong,-26.0217,22.401,25.9,30,94,3.65,BW,1612159705
East Moline,41.5009,-90.4443,-1.0,80,90,4.63,US,1612159705
Zyryanskoye,56.8306,86.6258,-21.17,88,93,2.15,RU,1612159705
Severo-Yeniseyskiy,60.3725,93.0408,-23.11,86,100,1.08,RU,1612159706
Corrales,35.2378,-106.6067,3.33,51,47,1.85,US,1612159706
Vostok,46.4856,135.8833,-10.4,97,100,1.7,RU,1612159706
Fernie,49.5,-115.0687,3.0,80,100,1.54,CA,1612159237
Itarema,-2.9248,-39.9167,26.95,78,96,6.04,BR,1612159707
Jinchang,38.4953,102.1739,-1.01,63,0,1.8,CN,1612159707
Māngrol,21.1167,70.1167,26.85,26,0,1.71,IN,1612159708
Aleksandrov Gay,50.147,48.5704,-0.68,98,100,2.26,RU,1612159708
Kushima,31.4583,131.2333,20.0,45,40,5.66,JP,1612159708
Hornepayne,49.2138,-84.7705,-16.15,93,100,1.67,CA,1612159708
Salalah,17.0151,54.0924,25.0,53,20,4.12,OM,1612159709
Paulista,-7.9408,-34.8731,26.0,69,40,2.57,BR,1612159709
Amuntai,-2.4177,115.2494,32.27,60,100,0.47,ID,1612159689
Corinth,37.9407,22.9573,12.22,76,99,3.17,GR,1612159710
Fuerte Olimpo,-21.0415,-57.8738,23.28,93,53,2.58,PY,1612159710
Guerrero Negro,27.9769,-114.0611,16.84,53,100,1.02,MX,1612159472
Nishihara,26.1842,127.7558,24.0,40,40,4.63,JP,1612159711
Nogliki,51.8333,143.1667,-21.0,87,46,2.07,RU,1612159711
Ambanja,-13.6833,48.45,30.0,68,40,1.03,MG,1612159712
Port Blair,11.6667,92.75,28.28,69,35,7.59,IN,1612159712
Chingirlau,51.095,54.0814,-0.52,98,100,4.98,KZ,1612159712
Pīpār,26.3856,73.5378,26.31,15,0,0.77,IN,1612159713
U Thong,14.3751,99.8923,34.44,30,0,2.12,TH,1612159713
Arāmbāgh,22.8833,87.7833,23.09,23,0,2.58,IN,1612159714
Ndélé,8.4109,20.6473,22.56,22,5,1.77,CF,1612159714
Igrim,63.1906,64.4162,-11.15,96,100,5.04,RU,1612159714
Ōmachi,36.5,137.8667,11.0,28,75,9.77,JP,1612159462
Qasigiannguit,68.8193,-51.1922,-13.0,61,75,1.03,GL,1612159715
Tsiroanomandidy,-18.7667,46.0333,25.07,72,1,1.94,MG,1612159715
Fairlie,55.756,-4.8556,1.0,93,70,1.54,GB,1612159715
São Gabriel da Cachoeira,-0.1303,-67.0892,22.42,98,81,0.62,BR,1612159715
Vila Velha,-20.3297,-40.2925,25.0,83,0,2.57,BR,1612159716
Antsohihy,-14.8796,47.9875,27.99,72,25,1.76,MG,1612159716
Kedrovyy,56.1667,91.8167,-29.0,69,76,2.0,RU,1612159716
Yichun,47.7,128.9,-21.06,87,100,3.58,CN,1612159717
Tongliao,43.6125,122.2653,-16.43,85,22,6.91,CN,1612159717
Saint George,37.1041,-113.5841,9.0,43,1,2.01,US,1612159718
Sundsvall,62.3913,17.3063,-11.11,85,0,2.06,SE,1612159718
Netrakona,24.8833,90.7167,23.83,31,0,0.85,BD,1612159566
Kachug,53.9606,105.8817,-29.89,80,38,0.58,RU,1612159718
Portland,45.5234,-122.6762,9.44,87,90,5.14,US,1612159590
Kaduqli,11.0167,29.7167,23.89,19,0,5.3,SD,1612159719
Samara Oblast,53.0,50.0,-3.0,74,40,3.0,RU,1612159719
La Providencia,28.7167,-111.5833,15.0,67,84,3.57,MX,1612159719
Douglas,41.3,-96.167,-1.0,80,90,2.57,US,1612159720
Nigrán,42.1415,-8.8066,13.33,94,75,4.12,ES,1612159720
San Antonio,29.4241,-98.4936,12.22,50,1,3.6,US,1612159569
Burns Lake,54.2331,-125.7533,-10.0,92,100,0.51,CA,1612159721
Blagoyevo,63.3667,47.9167,-2.42,98,100,1.66,RU,1612159721
Shenjiamen,29.9576,122.298,10.08,95,96,3.97,CN,1612159692
Soyo,-6.1349,12.3689,26.42,85,94,2.75,AO,1612159722
Nara,34.6851,135.8049,14.44,44,75,1.54,JP,1612159507
Rāmhormoz,31.28,49.6035,12.0,54,0,2.49,IR,1612159504
Kavaratti,10.5669,72.642,27.64,74,1,5.14,IN,1612159723
Lafiagi,8.8667,5.4167,21.87,27,0,1.14,NG,1612159724
