City,Lat,Lng,Max Temp,Humidity,Cloudiness,Wind Speed,Country,Date
Oliveira,-20.6964,-44.8272,67.95,92,100,3.65,BR,1612489887
Ponta do Sol,32.6667,-17.1,48.99,67,86,3.0,PT,1612489887
Barrow,71.2906,-156.7887,-29.2,68,40,9.22,US,1612489887
Ushuaia,-54.8,-68.3,46.4,81,20,34.52,AR,1612489750
Chokurdakh,70.6333,147.9167,-14.51,86,96,20.2,RU,1612489888
Atuona,-9.8,-139.0333,78.87,72,4,10.6,PF,1612489888
Saskylakh,71.9167,114.0833,-36.87,77,47,2.62,RU,1612489888
Rikitea,-23.1203,-134.9692,78.4,71,100,12.1,PF,1612489889
Cayenne,4.9333,-52.3333,78.8,89,75,8.05,GF,1612489889
Port Alfred,-33.5906,26.891,66.99,89,48,8.79,ZA,1612489889
Nishihara,26.1842,127.7558,68.0,45,75,3.44,JP,1612489889
Oshikango,-17.4,15.8833,78.8,61,36,4.61,NA,1612489889
São Filipe,14.8961,-24.4956,71.6,75,100,11.43,CV,1612489890
Merrill,45.1805,-89.6835,25.0,86,90,11.5,US,1612489890
Kinablangan,7.6947,126.5503,82.49,73,35,4.21,PH,1612489890
Arica,-18.475,-70.3042,69.8,78,0,3.44,CL,1612489890
Saint-Philippe,-21.3585,55.7679,78.8,73,90,5.75,RE,1612489891
Tuktoyaktuk,69.4541,-133.0374,-34.6,67,40,10.36,CA,1612489891
San Jerónimo,-11.9472,-75.2829,52.21,73,100,3.4,PE,1612489891
Galle,6.0367,80.217,75.45,88,60,7.83,LK,1612489891
Tuatapere,-46.1333,167.6833,66.96,53,88,6.38,NZ,1612489892
Busselton,-33.65,115.3333,66.0,40,5,1.99,AU,1612489892
Fortuna,40.5982,-124.1573,50.0,76,1,11.5,US,1612489892
Riyadh,24.6877,46.7219,60.8,29,0,4.61,SA,1612489728
Santiago Momoxpan,19.0667,-98.2333,64.4,32,1,10.36,MX,1612489892
Hermanus,-34.4187,19.2345,64.0,91,5,7.9,ZA,1612489893
Riwaka,-41.0833,173.0,66.51,56,33,9.78,NZ,1612489893
Kaitangata,-46.2817,169.8464,59.0,70,67,15.99,NZ,1612489893
Cape Town,-33.9258,18.4232,66.99,82,0,10.36,ZA,1612489677
Punta Arenas,-53.15,-70.9167,50.0,62,20,19.57,CL,1612489894
Port Keats,-14.25,129.55,86.52,64,100,13.29,AU,1612489894
Saint George,37.1041,-113.5841,50.0,27,1,8.05,US,1612489861
Sumbe,-11.2061,13.8437,75.11,85,83,4.05,AO,1612489894
Vila Velha,-20.3297,-40.2925,79.0,78,20,10.36,BR,1612489895
Kiryat Gat,31.61,34.7642,55.99,100,100,1.01,IL,1612489621
Tucuruí,-3.7661,-49.6725,75.87,86,29,4.9,BR,1612489895
Terrace,54.5163,-128.6035,32.0,100,90,5.75,CA,1612489690
Portland,45.5234,-122.6762,45.0,87,90,8.05,US,1612489659
Korla,41.7597,86.1469,24.84,79,34,4.27,CN,1612489896
Pandan,14.0453,124.1694,77.94,87,97,18.39,PH,1612489896
Bluff,-46.6,168.3333,58.28,71,100,10.87,NZ,1612489896
Qaanaaq,77.484,-69.3632,-20.04,61,56,7.9,GL,1612489896
Auki,-8.7676,160.7034,85.06,67,15,8.37,SB,1612489897
Qui Nhon,13.7667,109.2333,74.03,82,15,11.12,VN,1612489850
Kintinku,-5.8833,35.2333,67.46,87,59,2.57,TZ,1612489897
Thompson,55.7435,-97.8558,-9.4,77,90,8.05,CA,1612489897
Khovd,48.0056,91.6419,17.15,80,94,5.84,MN,1612489898
Mataura,-46.1927,168.8643,74.16,41,99,2.13,NZ,1612489898
Hithadhoo,-0.6,73.0833,82.36,76,100,10.69,MV,1612489898
New Norfolk,-42.7826,147.0587,82.0,55,100,3.0,AU,1612489898
Portel,-1.9356,-50.8211,76.46,88,0,5.7,BR,1612489898
Umluj,25.0213,37.2685,68.92,50,0,6.69,SA,1612489899
Hilo,19.7297,-155.09,73.4,68,90,13.8,US,1612489617
Haines Junction,60.7522,-137.5108,-18.4,76,30,0.58,CA,1612489899
Hobart,-42.8794,147.3294,82.0,73,75,16.11,AU,1612489899
Constitución,-35.3333,-72.4167,60.15,90,87,2.3,CL,1612489900
Caravelas,-17.7125,-39.2481,77.16,82,0,7.61,BR,1612489900
Nikolskoye,59.7035,30.7861,8.01,85,75,8.95,RU,1612489900
Trat,12.5,102.5,87.01,48,11,3.89,TH,1612489900
Vaini,-21.2,-175.2,82.4,89,90,8.05,TO,1612489901
Si Bun Rueang,16.9667,102.2833,75.0,56,0,1.54,TH,1612489901
Manggar,-2.8833,108.2667,83.19,74,100,10.85,ID,1612489754
Xihe,31.6864,113.4659,51.37,52,25,10.25,CN,1612489901
São Miguel do Araguaia,-13.275,-50.1628,75.69,82,85,3.33,BR,1612489902
Yate,51.5407,-2.4184,43.0,96,18,5.7,GB,1612489902
Vostok,46.4856,135.8833,-5.08,85,3,5.66,RU,1612489902
Richards Bay,-28.783,32.0377,73.96,90,76,8.5,ZA,1612489902
Mar del Plata,-38.0023,-57.5575,64.99,72,20,9.22,AR,1612489745
Hong Kong,22.2855,114.1577,69.01,74,44,3.0,HK,1612489895
Maţāy,28.419,30.7792,55.31,88,0,10.96,EG,1612489903
Tawao,4.2498,117.8871,78.8,89,20,2.3,MY,1612489903
São Jerônimo,-29.9592,-51.7222,69.8,78,40,10.36,BR,1612489904
Vao,-22.6667,167.4833,78.82,87,0,18.25,NC,1612489904
Roald,62.5833,6.1333,23.0,58,0,8.05,NO,1612489904
Akdepe,42.0551,59.3788,39.2,86,99,6.91,TM,1612489904
Kahului,20.8947,-156.47,71.6,68,90,12.66,US,1612489904
Barra,-11.0894,-43.1417,78.3,71,80,1.81,BR,1612489905
Yumen,40.2833,97.2,31.1,60,0,17.58,CN,1612489905
Khatanga,71.9667,102.5,-30.82,78,0,9.57,RU,1612489905
Jamestown,42.097,-79.2353,36.0,44,1,12.66,US,1612489905
Nome,64.5011,-165.4064,9.0,72,90,16.11,US,1612489906
Butaritari,3.0707,172.7902,80.19,84,98,13.56,KI,1612489906
Honiara,-9.4333,159.95,85.14,69,5,7.36,SB,1612489906
Jiangyou,31.7667,104.7167,52.07,55,0,0.45,CN,1612489906
Albany,42.6001,-73.9662,28.0,77,0,2.66,US,1612489635
Puerto Ayora,-0.7393,-90.3518,77.0,94,18,3.0,EC,1612489907
Severo-Kuril'sk,50.6789,156.125,13.59,85,86,9.82,RU,1612489907
Avarua,-21.2078,-159.775,84.2,70,75,3.44,CK,1612489907
Arraial do Cabo,-22.9661,-42.0278,77.16,83,0,26.53,BR,1612489908
Seoul,37.5683,126.9778,33.8,69,0,6.91,KR,1612489908
Kapaa,22.0752,-159.319,68.0,64,90,9.22,US,1612489908
Lagoa,39.05,-27.9833,54.25,73,71,21.25,PT,1612489908
Nizhniy Ufaley,55.9153,59.9842,34.23,96,100,4.12,RU,1612489909
Bredasdorp,-34.5322,20.0403,62.6,88,4,3.44,ZA,1612489909
Kuching,1.55,110.3333,75.2,100,40,3.44,MY,1612489909
Dhangadhi,28.7079,80.5961,57.07,77,100,7.74,NP,1612489909
Inyonga,-6.7167,32.0667,63.18,95,60,2.15,TZ,1612489910
Lorengau,-2.0226,147.2712,80.46,80,100,7.56,PG,1612489910
Port Lincoln,-34.7333,135.8667,63.54,67,99,21.3,AU,1612489910
Carnarvon,-24.8667,113.6333,77.0,76,89,20.71,AU,1612489910
Dikson,73.5069,80.5464,-8.12,91,100,10.98,RU,1612489910
Chapais,49.7834,-74.8492,15.8,86,1,4.52,CA,1612489911
East London,-33.0153,27.9116,72.73,74,88,5.93,ZA,1612489911
Nuuk,64.1835,-51.7216,14.0,67,40,20.71,GL,1612489911
Necochea,-38.5473,-58.7368,55.99,91,0,4.76,AR,1612489911
Ribeira Grande,38.5167,-28.7,55.49,69,43,19.44,PT,1612489912
Batagay-Alyta,67.8006,130.4114,-20.24,86,100,3.0,RU,1612489912
Quatre Cocos,-20.2078,57.7625,78.01,78,20,5.75,MU,1612489912
Antofagasta,-23.65,-70.4,66.2,77,20,10.36,CL,1612489871
Kunya,12.2233,8.5325,62.6,42,0,8.57,NG,1612489912
Hofn,64.2539,-15.2082,36.3,79,100,15.19,IS,1612489913
Kieta,-6.2167,155.6333,86.45,65,4,6.6,PG,1612489913
Pevek,69.7008,170.3133,-13.59,78,72,5.32,RU,1612489913
Havre-St-Pierre,50.2334,-63.5986,32.0,100,90,4.61,CA,1612489913
Bathsheba,13.2167,-59.5167,78.8,65,20,18.41,BB,1612489913
Broken Hill,-31.95,141.4333,69.8,35,40,8.05,AU,1612489914
Kavieng,-2.5744,150.7967,84.63,74,71,8.03,PG,1612489914
Sterlibashevo,53.4376,55.2578,34.32,97,100,7.72,RU,1612489914
Longyearbyen,78.2186,15.6401,17.6,67,75,11.5,SJ,1612489914
Tasiilaq,65.6145,-37.6368,26.6,80,75,10.36,GL,1612489915
Betioky,-23.7167,44.3833,75.22,87,94,2.19,MG,1612489915
Lebu,-37.6167,-73.65,61.07,79,0,2.44,CL,1612489915
Tommot,58.9564,126.2925,-20.72,81,0,0.72,RU,1612489915
Banda Aceh,5.5577,95.3222,80.64,74,31,15.9,ID,1612489916
George Town,5.4112,100.3354,80.6,69,20,7.02,MY,1612489916
Bengkulu,-3.8004,102.2655,82.31,69,11,3.53,ID,1612489916
Rio Grande,-32.035,-52.0986,68.0,77,20,12.66,BR,1612489914
Dingle,10.9995,122.6711,82.0,79,83,15.37,PH,1612489917
Lompoc,34.6391,-120.4579,55.4,71,1,12.66,US,1612489917
Charters Towers,-20.1,146.2667,87.66,51,86,11.12,AU,1612489917
Williamsport,41.2412,-77.0011,28.99,74,1,3.22,US,1612489752
Lábrea,-7.2586,-64.7981,77.02,92,100,1.1,BR,1612489918
Española,35.9911,-106.0806,37.0,23,1,12.66,US,1612489918
Port Hardy,50.6996,-127.4199,42.8,100,90,5.75,CA,1612489918
Lodja,-3.4833,23.4333,68.13,95,57,0.63,CD,1612489918
Mountain Home,43.133,-115.6912,39.2,60,90,5.75,US,1612489919
Nurota,40.5614,65.6886,39.2,75,100,11.5,UZ,1612489919
Camabatela,-8.1881,15.375,63.52,100,100,1.45,AO,1612489919
Baykit,61.67,96.37,-2.24,88,100,3.11,RU,1612489919
Howard Springs,-12.497,131.047,73.4,94,90,6.91,AU,1612489920
Castro,-24.7911,-50.0119,65.1,95,0,4.36,BR,1612489920
Mahébourg,-20.4081,57.7,77.0,78,20,5.75,MU,1612489920
Myre,69.1036,15.9492,35.6,75,100,24.16,NO,1612489920
Port Blair,11.6667,92.75,81.36,74,4,13.11,IN,1612489920
Ankazoabo,-22.2833,44.5167,75.16,81,74,3.27,MG,1612489921
Kandi,11.1342,2.9386,71.17,22,0,4.92,BJ,1612489921
Beatrice,40.2681,-96.747,27.0,80,1,4.61,US,1612489921
Port Elizabeth,-33.918,25.5701,62.6,88,0,5.95,ZA,1612489922
Torbay,47.6666,-52.7314,39.99,100,90,13.8,CA,1612489922
Nhulunbuy,-12.2333,136.7667,84.2,74,75,9.22,AU,1612489922
Elizabeth City,36.2946,-76.2511,43.0,52,1,6.91,US,1612489922
Grindavik,63.8424,-22.4338,37.4,87,75,28.77,IS,1612489923
Salalah,17.0151,54.0924,69.8,73,40,4.61,OM,1612489923
Brae,60.3964,-1.353,35.6,55,90,17.27,GB,1612489923
Meulaboh,4.1363,96.1285,79.54,76,66,4.12,ID,1612489924
Zelenogorskiy,55.0333,87.0,8.6,85,90,8.95,RU,1612489924
Valença do Piauí,-6.4075,-41.7456,74.59,72,43,3.22,BR,1612489924
Xinzhi,36.4989,111.7047,43.38,48,45,2.98,CN,1612489924
Yellowknife,62.456,-114.3525,-29.0,75,1,6.91,CA,1612489925
Yumbe,3.4651,31.2469,74.75,31,78,5.03,UG,1612489925
Chui,-33.6971,-53.4616,66.15,79,98,14.41,UY,1612489925
Vršac,45.1167,21.3036,32.0,100,0,1.14,RS,1612489925
Eyl,7.9803,49.8164,68.11,80,5,12.73,SO,1612489926
Nemuro,43.3236,145.575,15.8,62,40,10.36,JP,1612489701
Vestmannaeyjar,63.4427,-20.2734,39.81,72,100,30.09,IS,1612489926
Awjilah,29.1081,21.2869,52.14,86,0,4.36,LY,1612489926
Esim,4.8699,-2.2405,79.23,87,6,5.44,GH,1612489926
Tautira,-17.7333,-149.15,82.4,65,20,2.3,PF,1612489927
Cherskiy,68.75,161.3,-6.27,77,98,9.08,RU,1612489927
Ziyang,29.2497,117.8547,55.6,82,90,2.3,CN,1612489927
Severo-Yeniseyskiy,60.3725,93.0408,-1.93,93,96,6.78,RU,1612489927
Evensk,61.95,159.2333,2.68,89,100,20.94,RU,1612489928
Airai,-8.9266,125.4092,66.36,98,98,5.1,TL,1612489928
Vangaindrano,-23.35,47.6,75.42,92,29,5.1,MG,1612489928
Sioux Lookout,50.1001,-91.917,8.6,78,90,13.8,CA,1612489928
Naze,28.3667,129.4833,66.2,55,20,5.75,JP,1612489929
Porbandar,21.6422,69.6093,59.0,77,0,9.22,IN,1612489929
Ereymentau,51.6199,73.1033,25.02,98,99,12.62,KZ,1612489929
Champerico,14.3,-91.9167,69.01,93,9,6.35,GT,1612489929
Topeka,39.0483,-95.678,28.0,63,1,6.91,US,1612489519
Koulamoutou,-1.1303,12.4736,72.59,92,100,1.68,GA,1612489930
Cabo San Lucas,22.8909,-109.9124,78.8,29,40,10.29,MX,1612489930
Ahipara,-35.1667,173.1667,69.33,67,100,5.55,NZ,1612489930
Thinadhoo,0.5333,72.9333,82.26,76,100,11.83,MV,1612489826
Anadyr,64.75,177.4833,5.0,78,40,33.55,RU,1612489931
Pisco,-13.7,-76.2167,72.0,78,0,14.97,PE,1612489931
Bambous Virieux,-20.3428,57.7575,78.01,78,20,5.75,MU,1612489931
Campbell River,50.0163,-125.2446,41.0,100,90,4.61,CA,1612489931
Oyama,36.3,139.8,46.4,29,20,11.5,JP,1612489932
Zyryanka,65.75,150.85,-10.25,89,100,22.79,RU,1612489932
Matara,5.9485,80.5353,74.35,86,31,4.63,LK,1612489880
Pedernales,18.0384,-71.744,76.75,69,1,3.15,DO,1612489932
Daru,-9.0763,143.2092,88.99,63,59,10.71,PG,1612489932
Remanso,-9.6179,-42.0831,79.77,60,67,4.79,BR,1612489933
Flin Flon,54.7682,-101.865,-6.45,90,100,8.81,CA,1612489933
Cabañas,22.9758,-82.9219,64.4,72,20,3.44,CU,1612489933
Kununurra,-15.7667,128.7333,89.6,70,40,10.36,AU,1612489886
Natal,-5.795,-35.2094,78.8,78,0,8.05,BR,1612489929
Algiers,36.7525,3.042,69.8,24,75,14.97,DZ,1612489720
Faanui,-16.4833,-151.75,81.75,67,16,6.71,PF,1612489748
Sistranda,63.7256,8.834,15.8,92,20,9.22,NO,1612489934
Benjamin Constant,-4.3831,-70.0311,75.2,100,75,1.36,BR,1612489935
Turukhansk,65.8167,87.9833,-23.17,87,100,4.59,RU,1612489935
Avera,33.194,-82.5271,50.0,43,1,4.61,US,1612489936
Papara,-3.9839,-38.7273,81.0,78,40,11.5,BR,1612489936
Hasaki,35.7333,140.8333,46.4,36,20,11.5,JP,1612489936
Saint-Pierre,-21.3393,55.4781,78.8,73,90,5.75,RE,1612489936
Tigil',57.8,158.6667,5.7,91,84,2.95,RU,1612489937
Yangi Marg`ilon,40.4272,71.7189,30.2,69,0,9.22,UZ,1612489937
Klaksvík,62.2266,-6.589,33.8,64,20,14.97,FO,1612489937
Tarauacá,-8.1614,-70.7656,75.25,85,100,1.36,BR,1612489937
Rafrāf,37.1904,10.1837,53.6,87,20,7.96,TN,1612489937
Atambua,-9.1061,124.8925,75.04,92,100,4.94,ID,1612489883
Egvekinot,66.3167,-179.1667,-19.05,90,100,17.25,RU,1612489938
Lahaina,20.8783,-156.6825,73.4,60,75,14.97,US,1612489938
Bethel,41.3712,-73.414,28.0,80,1,2.55,US,1612489938
Magadan,59.5667,150.8,-2.27,83,78,15.08,RU,1612489939
Laguna,38.421,-121.4238,60.8,31,1,6.91,US,1612489939
Yerbogachën,61.2767,108.0108,-23.84,86,85,1.41,RU,1612489725
Oruzgan,32.8333,66.0,35.28,70,0,7.2,AF,1612489939
Province of Mantua,45.1667,10.7833,46.0,95,87,1.01,IT,1612489939
San Patricio,28.017,-97.5169,69.8,78,20,16.11,US,1612489940
Cam Ranh,11.9214,109.1591,78.8,61,20,11.5,VN,1612489940
Acapulco de Juárez,16.8634,-99.8901,80.6,78,75,6.91,MX,1612489745
Arlit,18.7369,7.3853,62.51,27,99,7.07,NE,1612489941
Payo,-3.7508,103.6372,76.68,85,76,4.56,ID,1612489941
Kaili,-3.4626,120.2147,78.04,74,59,1.97,ID,1612489941
Ongandjera,-17.8833,15.0667,76.26,40,34,7.9,NA,1612489942
Fort Walton Beach,30.4058,-86.6188,64.0,88,90,5.75,US,1612489643
Mariehamn,60.0973,19.9348,19.4,73,75,13.8,AX,1612489942
San,13.3034,-4.8956,73.81,19,63,6.76,ML,1612489881
Kuchinda,21.7333,84.35,51.8,87,5,1.48,IN,1612489943
Provideniya,64.3833,-173.3,-4.77,89,100,27.45,RU,1612489943
Birjand,32.8663,59.2211,26.6,22,0,9.22,IR,1612489943
Pacific Grove,36.6177,-121.9166,55.4,67,1,6.91,US,1612489944
Tuburan,6.6439,122.2736,84.2,70,75,1.14,PH,1612489944
Wanning,18.8003,110.3967,72.28,74,16,6.33,CN,1612489944
Shaunavon,49.6501,-108.4181,19.4,86,95,13.8,CA,1612489945
Divo,5.8397,-5.36,75.0,91,29,3.98,CI,1612489945
Berlevåg,70.8578,29.0864,27.99,90,100,16.17,NO,1612489945
Geraldton,-28.7667,114.6,78.8,29,100,24.16,AU,1612489946
Kapit,2.0167,112.9333,82.44,76,99,0.54,MY,1612489937
Chadan,51.2833,91.5833,15.21,94,100,0.87,RU,1612489946
Hudson Bay,52.85,-102.3842,-5.64,89,100,5.41,CA,1612489946
Mt. Pleasant,32.7941,-79.8626,48.99,76,1,10.78,US,1612489946
Upernavik,72.7868,-56.1549,-5.57,70,99,5.61,GL,1612489947
Yashkul',46.1711,45.3435,40.82,91,81,7.45,RU,1612489947
Wooster,40.8051,-81.9351,30.99,93,90,11.5,US,1612489701
Ferrol,43.4832,-8.2369,50.0,89,100,3.58,ES,1612489947
Mossamedes,-15.1961,12.1522,70.65,72,0,6.62,AO,1612489948
Cedar City,37.6775,-113.0619,33.8,40,1,10.36,US,1612489948
Vanavara,60.34,102.2797,-13.04,89,94,3.29,RU,1612489948
Kauhajoki,62.4333,22.1833,3.0,85,1,4.61,FI,1612489948
Dibulla,11.2725,-73.3091,78.33,77,89,8.32,CO,1612489949
Vila Franca do Campo,37.7167,-25.4333,54.0,71,40,10.36,PT,1612489949
Belaya Gora,68.5333,146.4167,-16.98,87,51,10.29,RU,1612489949
Nelson Bay,-32.7167,152.15,86.0,54,20,12.66,AU,1612489949
Samoylovka,51.184,43.7081,40.84,96,100,14.43,RU,1612489950
Dalmeny,52.3334,-106.7679,-0.4,71,40,9.22,CA,1612489950
Poum,-20.2333,164.0167,80.44,81,6,13.0,NC,1612489951
Sørland,67.667,12.6934,36.86,78,100,19.44,NO,1612489951
Estevan,49.1334,-102.9842,-0.99,78,1,16.11,CA,1612489951
Kruisfontein,-34.0033,24.7314,63.0,94,0,3.18,ZA,1612489951
Marathon,44.9,-89.7668,24.8,80,90,14.97,US,1612489951
Porto-Novo,6.4965,2.6036,84.2,84,40,10.36,BJ,1612489952
Knurów,50.2197,18.6507,33.01,10,100,3.0,PL,1612489952
Bagotville,-28.9833,153.4167,81.0,61,40,11.5,AU,1612489952
Havelock,34.8791,-76.9013,46.99,65,1,4.61,US,1612489952
Tiksi,71.6872,128.8694,-20.0,88,100,7.29,RU,1612489953
Korem,12.5058,39.5228,47.08,52,0,3.27,ET,1612489953
Puerto El Triunfo,13.2833,-88.55,73.4,73,0,2.3,SV,1612489953
Delījān,33.9905,50.6838,48.72,42,100,4.21,IR,1612489954
Skegness,53.1436,0.3363,45.0,100,90,8.05,GB,1612489954
Ponta Delgada,37.7333,-25.6667,54.0,71,40,10.36,PT,1612489954
Zongolica,18.6667,-96.9833,67.46,50,0,4.97,MX,1612489954
Larsnes,62.2028,5.5773,21.99,70,1,1.99,NO,1612489955
Plattsburgh,44.6995,-73.4529,21.99,93,1,3.27,US,1612489955
Port Loko,8.7667,-12.7833,72.64,88,0,3.44,SL,1612489955
Soanierana Ivongo,-16.9167,49.5833,75.43,88,28,3.94,MG,1612489955
Lata,40.1629,-8.3327,51.01,87,100,2.55,PT,1612489956
Forbes,-33.3833,148.0167,81.32,53,91,20.69,AU,1612489956
Paamiut,61.994,-49.6678,17.22,74,0,5.88,GL,1612489956
Teguise,29.0605,-13.564,57.2,72,0,13.8,ES,1612489957
Novaya Chigla,51.2233,40.4781,38.23,98,100,7.81,RU,1612489957
Alofi,-19.0595,-169.9187,82.4,83,75,11.5,NU,1612489957
Sambava,-14.2667,50.1667,75.16,88,96,5.73,MG,1612489957
Ust-Tsilma,65.441,52.1498,-1.59,92,100,9.73,RU,1612489958
Pordim,43.3833,24.85,46.4,81,1,9.22,BG,1612489958
Morant Bay,17.8815,-76.4093,78.8,73,40,6.91,JM,1612489958
Kisi,9.0833,3.85,72.32,21,6,1.54,NG,1612489958
Grevesmühlen,53.8667,11.1833,32.0,91,14,4.0,DE,1612489958
Kjøllefjord,70.9457,27.3465,26.83,92,99,14.05,NO,1612489959
San Jose de Guanipa,8.8872,-64.1651,78.53,69,84,14.94,VE,1612489959
Phan Thiet,10.9333,108.1,79.84,59,39,4.59,VN,1612489950
Barkhan,29.8977,69.5256,42.42,56,0,3.09,PK,1612489959
Jega,12.2175,4.3792,72.55,20,0,11.95,NG,1612489960
Dudinka,69.4058,86.1778,-31.88,84,100,3.15,RU,1612489960
Palmer,42.1584,-72.3287,23.0,93,20,2.89,US,1612489960
Rodrigues Alves,-7.738,-72.6509,75.58,94,100,1.83,BR,1612489960
Praia da Vitória,38.7333,-27.0667,52.0,87,75,18.81,PT,1612489961
Ayagoz,47.9714,80.4392,16.79,94,100,7.34,KZ,1612489961
Los Zacatones,22.95,-102.05,75.2,9,1,10.36,MX,1612489962
Norman Wells,65.282,-126.8329,-43.6,66,75,2.3,CA,1612489962
Santiago,-33.4569,-70.6483,75.0,64,0,13.8,CL,1612489814
Kavaratti,10.5669,72.642,80.96,76,39,13.33,IN,1612489962
Zarubino,42.63,131.0922,17.17,94,87,4.0,RU,1612489962
Ilulissat,69.2167,-51.1,1.4,35,20,9.22,GL,1612489963
Westport,41.1415,-73.3579,35.6,75,1,4.61,US,1612489963
Chicama,-7.8447,-79.1469,73.31,64,99,3.65,PE,1612489963
Jining,35.405,116.5814,48.99,52,100,10.25,CN,1612489964
Mingguang,32.7802,117.9638,45.81,82,100,1.95,CN,1612489964
Husavik,66.0449,-17.3389,26.6,63,0,9.22,IS,1612489964
Alpena,45.0617,-83.4327,33.8,60,90,16.11,US,1612489964
Zhalantun,48.0,122.7167,13.06,89,11,5.97,CN,1612489964
Erdenet,49.0333,104.0833,13.05,90,71,6.82,MN,1612489965
Riberalta,-10.9833,-66.1,75.07,96,100,3.29,BO,1612489746
Tura,25.5198,90.2201,64.47,53,0,2.28,IN,1612489965
Kenai,60.5544,-151.2583,19.0,79,90,8.05,US,1612489965
Belmonte,-15.8631,-38.8828,78.8,73,0,6.91,BR,1612489966
Sept-Îles,50.2001,-66.3821,28.4,86,86,4.61,CA,1612489966
Algeciras,36.1333,-5.4505,57.2,82,75,8.05,ES,1612489966
Kozulka,50.0351,23.797,30.2,86,75,6.71,UA,1612489967
Opuwo,-18.0607,13.84,70.43,33,25,3.2,NA,1612489967
Kibondo,-3.5864,30.7203,60.85,97,88,2.46,TZ,1612489967
Salta,-24.7859,-65.4117,69.8,56,75,6.91,AR,1612489967
Waiouru,-39.4833,175.6667,66.16,43,0,8.08,NZ,1612489968
Panguna,-6.3164,155.4848,82.56,67,73,2.91,PG,1612489968
Tazmalt,36.3868,4.3989,55.6,42,82,5.97,DZ,1612489968
Waingapu,-9.6567,120.2641,81.07,80,86,9.66,ID,1612489968
Denpasar,-8.65,115.2167,82.4,83,20,6.91,ID,1612489825
Two Rivers,44.1539,-87.5693,33.01,100,90,14.97,US,1612489969
Balasore,21.4942,86.9317,63.23,33,0,4.27,IN,1612489969
Kismayo,-0.3582,42.5454,75.27,86,0,10.67,SO,1612489969
Rocha,-34.4833,-54.3333,65.89,71,100,16.46,UY,1612489970
El Paso,31.8001,-106.2005,66.2,22,20,14.97,US,1612489970
Guaymas,27.9333,-110.9,78.01,53,40,8.05,MX,1612489970
Haicheng,40.8516,122.7475,34.88,83,0,13.27,CN,1612489970
Pangnirtung,66.1451,-65.7125,8.64,90,100,2.66,CA,1612489971
Lüderitz,-26.6481,15.1594,66.85,61,0,16.89,NA,1612489971
Souillac,-20.5167,57.5167,77.0,78,20,5.75,MU,1612489971
Guaranda,-1.6,-79.0,56.48,83,100,1.79,EC,1612489971
Rechka Vydrino,51.485,104.8461,16.77,94,100,10.6,RU,1612489972
Show Low,34.2542,-110.0298,39.99,52,40,5.75,US,1612489972
Fuling,29.7022,107.3919,51.31,80,96,2.53,CN,1612489973
Along,28.1667,94.7667,59.49,51,88,1.3,IN,1612489973
Inawashiro,37.5667,140.1167,39.99,60,40,9.22,JP,1612489973
Tabou,4.423,-7.3528,78.22,90,85,7.49,CI,1612489973
Coyhaique,-45.5752,-72.0662,69.8,46,0,5.75,CL,1612489974
Negombo,7.2083,79.8358,73.4,88,20,10.36,LK,1612489974
Raudeberg,61.9875,5.1352,21.0,64,6,7.25,NO,1612489974
São Félix do Xingu,-6.6447,-51.995,76.5,82,100,1.28,BR,1612489975
Kikwit,-5.041,18.8162,70.66,95,97,0.76,CD,1612489975
Manaus,-3.1019,-60.025,80.6,89,20,1.52,BR,1612489975
Malumfashi,11.7853,7.6218,64.18,26,0,10.71,NG,1612489975
Chase,50.8165,-119.6857,32.0,93,100,1.97,CA,1612489975
Sur,22.5667,59.5289,63.84,69,0,3.18,OM,1612489976
Bourail,-21.5667,165.4833,82.85,76,38,8.93,NC,1612489976
Concordia,-31.393,-58.0209,71.01,74,0,4.0,AR,1612489976
Aksarka,66.5606,67.7975,-23.33,87,61,5.03,RU,1612489976
Douglas,41.3,-96.167,23.0,68,1,3.44,US,1612489796
Hualmay,-11.0964,-77.6139,70.63,80,97,5.86,PE,1612489977
Kedrovyy,56.1667,91.8167,1.4,85,0,2.24,RU,1612489977
Nantucket,41.2835,-70.0995,35.6,75,90,6.91,US,1612489852
Bismarck,46.8083,-100.7837,10.4,67,1,19.57,US,1612489978
Mount Gambier,-37.8333,140.7667,64.4,59,40,17.27,AU,1612489978
Aklavik,68.2191,-135.0107,-40.0,67,75,3.44,CA,1612489978
Isangel,-19.55,169.2667,86.0,70,75,5.75,VU,1612489978
La Paz,-16.5,-68.15,46.4,93,75,8.05,BO,1612489742
Vardø,70.3705,31.1107,28.0,90,99,20.24,NO,1612489979
Maragogi,-9.0122,-35.2225,78.12,82,15,9.53,BR,1612489979
Ikom,5.9667,8.7063,71.28,93,28,0.6,NG,1612489979
Zdvinsk,54.7021,78.661,5.31,93,99,4.92,RU,1612489979
Warri,5.5167,5.75,78.53,91,3,1.48,NG,1612489979
Asău,46.4333,26.4,37.4,87,40,6.91,RO,1612489980
Katsuura,35.1333,140.3,46.4,36,20,3.44,JP,1612489980
Tiarei,-17.5333,-149.3333,82.4,65,20,2.3,PF,1612489980
Arnedo,42.2167,-2.1,51.8,93,99,1.41,ES,1612489980
Hazorasp,41.3194,61.0742,35.6,93,100,9.22,UZ,1612489981
Salinópolis,-0.6136,-47.3561,79.84,85,95,11.23,BR,1612489967
Wodonga,-36.1167,146.8833,80.01,61,40,8.05,AU,1612489981
Cidreira,-30.1811,-50.2056,68.56,76,20,16.28,BR,1612489981
Camrose,53.0168,-112.8353,3.2,85,89,12.66,CA,1612489981
Zharkovskiy,55.849,32.2697,7.32,95,99,6.91,RU,1612489982
Mimoso do Sul,-21.0642,-41.3664,74.46,80,0,3.65,BR,1612489982
Muravlenko,63.7898,74.523,-19.12,89,78,5.41,RU,1612489982
Ilabaya,-17.4208,-70.5133,68.11,62,100,4.29,PE,1612489983
Bargi,22.9833,79.8667,57.58,36,0,1.9,IN,1612489983
Sitka,57.0531,-135.33,37.4,93,20,19.57,US,1612489983
Mongo,12.1844,18.693,65.16,26,61,7.65,TD,1612489983
Colares,38.7992,-9.4469,53.01,93,40,5.75,PT,1612489983
Dharampur,20.5333,73.1833,65.05,46,0,3.51,IN,1612489984
Dalbandin,28.8947,64.4101,43.3,52,0,4.72,PK,1612489984
Teya,60.3778,92.6267,0.01,90,100,5.57,RU,1612489984
Kishtwār,33.3167,75.7667,32.41,73,96,4.38,IN,1612489984
Majene,-3.5403,118.9707,86.54,59,93,2.35,ID,1612489985
Adré,13.4667,22.2,60.48,31,2,21.83,TD,1612489985
Labytnangi,66.6572,66.4183,-17.14,88,95,4.0,RU,1612489985
Saldanha,-33.0117,17.9442,60.8,82,0,8.05,ZA,1612489809
Bac Lieu,9.285,105.7244,80.64,67,38,13.96,VN,1612489985
Shache,38.4167,77.2406,26.76,83,0,4.23,CN,1612489986
Chanika,-5.4167,38.0167,65.95,98,34,1.57,TZ,1612489986
Puteyets,65.1716,57.091,0.16,92,100,7.52,RU,1612489986
Cortez,37.3489,-108.5859,33.8,40,1,10.36,US,1612489986
Cap Malheureux,-19.9842,57.6142,78.01,75,3,4.0,MU,1612489986
Markova,48.6758,24.4138,29.16,96,93,3.13,UA,1612489987
Garoowe,8.4054,48.4845,57.38,85,0,5.1,SO,1612489987
Savannah Bight,16.45,-85.85,73.0,80,0,15.75,HN,1612489988
Kapitanivka,48.9172,31.7167,26.13,95,100,20.69,UA,1612489988
Srednekolymsk,67.45,153.6833,-7.35,83,100,16.69,RU,1612489988
San Clemente,33.427,-117.612,55.99,80,0,2.15,US,1612489988
Yebaishou,41.3975,119.6408,33.76,75,0,5.21,CN,1612489988
Sinnamary,5.3833,-52.95,77.58,81,90,13.71,GF,1612489989
Pekan,3.4836,103.3996,75.2,83,20,4.61,MY,1612489989
Harar,9.3094,42.1258,48.07,43,48,3.85,ET,1612489989
Bilma,18.6853,12.9164,59.83,32,0,7.31,NE,1612489990
Kyren,51.6828,102.1408,12.27,88,100,2.53,RU,1612489990
Prachuap Khiri Khan,12.2167,99.75,73.4,73,66,1.03,TH,1612489990
Charlestown,-32.95,151.6667,82.0,71,0,16.15,AU,1612489990
Marawi,7.9986,124.2928,82.99,75,72,1.99,PH,1612489991
Palencia,42.4167,-4.5,41.0,95,93,4.0,ES,1612489991
La Ronge,55.1001,-105.2842,-0.4,78,100,6.91,CA,1612489991
Rome,43.2128,-75.4557,24.01,79,1,3.36,US,1612489991
Simpang Empat,4.95,100.6333,80.6,61,20,5.75,MY,1612489991
Narsaq,60.9167,-46.05,14.0,52,31,4.61,GL,1612489992
Mableton,33.8157,-84.5619,50.0,37,90,8.05,US,1612489992
Padang,-0.9492,100.3543,82.4,78,20,2.3,ID,1612489992
Deputatsky,69.3,139.9,-25.89,87,99,3.69,RU,1612489992
Shimoda,34.6667,138.95,48.2,57,75,8.05,JP,1612489993
Saint Paul Harbor,57.79,-152.4072,30.2,80,1,4.61,US,1612489993
Okato,-39.2,173.8833,72.0,51,0,10.0,NZ,1612489993
Aracati,-4.5617,-37.7697,80.06,78,94,11.32,BR,1612489993
Tullahoma,35.362,-86.2094,48.99,93,90,8.05,US,1612489993
San Cristobal,7.7669,-72.225,82.4,65,40,2.3,VE,1612489994
San Policarpo,12.1791,125.5072,81.45,85,98,17.4,PH,1612489994
Nioki,-2.7167,17.6833,70.65,92,62,2.24,CD,1612489994
Waterloo,43.4668,-80.5164,28.99,69,90,11.5,CA,1612489821
Ancud,-41.8697,-73.8203,71.6,49,0,9.22,CL,1612489995
Yulara,-25.2406,130.9889,71.6,53,90,10.36,AU,1612489995
Mizque,-17.941,-65.3402,60.6,78,100,3.69,BO,1612489995
Vallam,10.7167,79.0833,69.8,83,20,6.91,IN,1612489996
Rundu,-17.9333,19.7667,69.8,67,99,3.53,NA,1612489996
Kaduqli,11.0167,29.7167,69.3,23,0,20.22,SD,1612489980
San Fernando del Valle de Catamarca,-28.4696,-65.7852,63.0,84,14,5.86,AR,1612489996
Fabriano,43.3406,12.9073,48.99,89,73,3.44,IT,1612489996
Half Moon Bay,37.4636,-122.4286,57.99,66,1,6.4,US,1612489997
Mchinji,-13.7984,32.8802,62.85,96,70,2.1,MW,1612489997
Kambja,58.2335,26.696,12.2,85,90,6.91,EE,1612489997
Luxor,25.6989,32.6421,55.4,88,0,6.91,EG,1612489997
Santa Cruz de la Sierra,-17.8,-63.1667,73.4,78,40,4.61,BO,1612489998
Gwadar,25.1216,62.3254,65.82,27,0,8.41,PK,1612489998
Lakes Entrance,-37.8811,147.981,82.0,57,63,1.99,AU,1612489998
Ferkessédougou,9.6,-5.2,75.49,22,58,1.68,CI,1612489998
Tshikapa,-6.4167,20.8,71.02,88,98,1.48,CD,1612489999
Bereda,43.2686,-7.5406,45.0,90,99,1.43,ES,1612489999
Moranbah,-22.0016,148.0466,88.59,47,42,9.24,AU,1612490000
Seddon,-37.8068,144.8916,84.2,51,75,24.16,AU,1612490000
Leningradskiy,69.3833,178.4167,-26.01,85,100,11.3,RU,1612490000
Sampit,-2.5333,112.95,80.44,81,100,2.93,ID,1612490000
Blairmore,49.6,-114.4353,32.0,64,100,11.5,CA,1612490001
Iqaluit,63.7506,-68.5145,14.0,79,90,13.8,CA,1612490001
Mahīshādal,22.1833,87.9833,63.14,38,10,2.91,IN,1612490001
Ca Mau,9.1769,105.15,82.31,62,14,7.74,VN,1612490001
Ha Tinh,18.3333,105.9,68.45,84,92,1.39,VN,1612490002
Dunedin,-45.8742,170.5036,55.99,69,91,24.0,NZ,1612490002
Yining,29.0361,114.5636,51.8,91,100,1.63,CN,1612490002
Avila,40.5833,-5.0,46.99,85,100,1.99,ES,1612490002
Pagudpud,18.5616,120.7868,78.8,65,20,3.44,PH,1612490002
Nuevo Progreso,23.1667,-97.95,71.01,62,2,7.61,MX,1612490003
Clarence Town,-32.5833,151.7833,89.01,54,20,12.66,AU,1612490003
Shāhpur,16.7,76.8333,62.17,64,0,7.16,IN,1612490003
Philadelphia,39.9523,-75.1638,35.01,76,65,4.94,US,1612489894
Harlingen,26.1906,-97.6961,73.0,78,1,13.8,US,1612489781
Saint Stephen,50.3333,-4.9,46.4,93,9,8.05,GB,1612490004
Suşehri,40.1644,38.0867,35.8,84,37,2.06,TR,1612490004
Pālkonda,18.6,83.75,65.62,67,0,4.23,IN,1612490004
Shingū,33.7333,135.9833,48.2,43,40,11.5,JP,1612490004
Wilmington,34.2257,-77.9447,42.8,61,1,5.39,US,1612489969
Breytovo,58.2993,37.8617,1.22,93,9,7.92,RU,1612490005
Gimli,50.6336,-96.9907,1.4,78,100,11.5,CA,1612490005
Naryan-Mar,67.6713,53.087,-15.41,87,97,14.05,RU,1612490005
Dali,25.7,100.1833,51.08,46,33,1.99,CN,1612490006
Karlskoga,59.3267,14.5239,14.0,85,75,4.61,SE,1612490006
Shiyan,32.6475,110.7781,49.26,54,0,7.34,CN,1612490006
San José de Ocoa,18.55,-70.5,75.99,1,40,6.31,DO,1612490007
Matagami,49.7502,-77.6328,24.8,74,90,9.22,CA,1612490007
Karratha,-20.7377,116.8463,84.38,72,28,13.91,AU,1612490007
High Rock,26.6208,-78.2833,57.2,72,0,3.44,BS,1612490007
Kochki,54.3358,80.4806,7.18,92,100,3.98,RU,1612490007
Taoudenni,22.6783,-3.9836,67.98,20,16,6.24,ML,1612490008
Coquimbo,-29.9533,-71.3436,60.8,88,90,8.05,CL,1612490006
San Quintín,30.4833,-115.95,57.94,73,82,15.01,MX,1612490008
Flagstaff,35.1981,-111.6513,37.4,44,1,3.44,US,1612489835
Gelendzhik,44.5731,38.0747,49.21,89,97,11.48,RU,1612490008
Beringovskiy,63.05,179.3167,-0.36,92,100,8.52,RU,1612490009
Guanare,9.0418,-69.7421,80.33,60,44,4.0,VE,1612490009
Adrar,20.5022,-10.0711,68.2,21,14,8.61,MR,1612490009
Gamba,-2.65,10.0,78.06,88,100,3.24,GA,1612490009
Olinda,-8.0089,-34.8553,78.8,69,40,8.05,BR,1612490010
Zhuanghe,39.7008,122.9911,36.19,80,10,6.78,CN,1612490010
Staunton,38.1496,-79.0717,42.8,28,90,9.22,US,1612489811
Saint Anthony,45.0205,-93.218,15.8,67,1,20.71,US,1612489713
Diego de Almagro,-26.3667,-70.05,60.42,49,0,1.01,CL,1612489888
Esmeraldas,-19.7625,-44.3139,77.0,69,40,3.44,BR,1612489796
Rockford,42.2711,-89.094,26.01,80,90,23.02,US,1612490011
Atar,20.5169,-13.0499,61.7,39,100,6.76,MR,1612490011
Faya,18.3851,42.4509,55.4,67,0,8.05,SA,1612490012
Batemans Bay,-35.7167,150.1833,75.0,86,100,15.99,AU,1612490012
Russell,32.3502,-85.1999,53.6,57,75,7.96,US,1612490012
Vincennes,48.85,2.4333,46.99,100,99,4.61,FR,1612490012
Te Anau,-45.4167,167.7167,73.63,39,54,2.3,NZ,1612490013
Yorosso,12.3536,-4.7761,75.0,18,0,6.76,ML,1612490013
Gladstone,-23.85,151.25,86.0,48,18,10.36,AU,1612489848
Bucerías,20.75,-105.3333,71.6,88,1,8.05,MX,1612490013
Candoni,9.817,122.6043,82.71,69,97,10.85,PH,1612490013
Atasū,48.6814,71.6433,17.96,95,83,8.3,KZ,1612490014
Antanifotsy,-19.65,47.3167,60.87,92,100,1.7,MG,1612490014
Nanortalik,60.1432,-45.2371,21.42,78,100,8.25,GL,1612490014
Hamilton,39.1834,-84.5333,37.0,80,90,18.41,US,1612490014
Codrington,-38.2667,141.9667,65.88,49,52,9.42,AU,1612490015
Les Cayes,18.2,-73.75,73.92,81,1,6.4,HT,1612490015
Srandakan,-7.9386,110.2506,82.35,75,95,3.47,ID,1612490015
Conde,-7.2597,-34.9075,78.8,83,0,5.75,BR,1612490015
Inhambane,-23.865,35.3833,80.01,85,32,3.2,MZ,1612489885
Cotonou,6.3654,2.4183,84.2,84,40,10.36,BJ,1612489863
Cururupu,-1.8283,-44.8683,76.37,88,50,4.09,BR,1612490016
Clyde River,70.4692,-68.5914,-20.2,76,90,17.27,CA,1612490016
Karakol,42.4907,78.3936,22.53,69,97,3.44,KG,1612490017
Shanghai,31.2222,121.4581,48.2,76,75,8.95,CN,1612489917
Greenwood,34.1668,-82.1165,46.4,46,40,5.75,US,1612489989
Kibre Mengist,5.8833,38.9833,49.28,50,0,2.08,ET,1612490018
Kamuli,0.9472,33.1197,68.25,78,77,1.99,UG,1612490018
Bilibino,68.0546,166.4372,-14.33,79,100,10.31,RU,1612490018
