City,Lat,Lng,Max Temp,Humidity,Cloudiness,Wind Speed,Country,Date
Grand Gaube,-20.0064,57.6608,78.01,76,0,5.01,MU,1612492432
Atuona,-9.8,-139.0333,78.78,72,1,11.25,PF,1612492420
Longyearbyen,78.2186,15.6401,15.8,73,75,12.66,SJ,1612492416
Kapaa,22.0752,-159.319,69.8,56,90,5.75,US,1612492419
Katsuura,35.1333,140.3,51.01,36,40,3.44,JP,1612492423
Vila Franca do Campo,37.7167,-25.4333,54.0,66,40,10.36,PT,1612492141
Rikitea,-23.1203,-134.9692,78.24,72,100,12.71,PF,1612492972
Tiksi,71.6872,128.8694,-17.84,89,100,7.38,RU,1612492431
Bubaque,11.2833,-15.8333,77.14,69,73,17.11,GW,1612492972
Narsaq,60.9167,-46.05,14.0,52,28,5.75,GL,1612492440
Hobart,-42.8794,147.3294,80.01,78,75,13.8,AU,1612492289
Albany,42.6001,-73.9662,27.0,81,4,2.53,US,1612492205
Saint George,37.1041,-113.5841,48.2,25,1,12.66,US,1612492442
Port Macquarie,-31.4333,152.9167,86.0,57,2,4.0,AU,1612492442
Semporna,4.4818,118.6112,82.4,78,20,3.44,MY,1612492973
Hamilton,39.1834,-84.5333,37.0,93,90,12.66,US,1612492450
Knyaze-Volkonskoye,48.4642,135.4567,-2.2,46,0,24.61,RU,1612492974
Busselton,-33.65,115.3333,71.01,45,1,4.0,AU,1612492412
Qaanaaq,77.484,-69.3632,-19.08,63,66,8.19,GL,1612492426
Bethel,41.3712,-73.414,28.99,86,1,3.49,US,1612492413
Lebu,-37.6167,-73.65,60.13,81,0,5.17,CL,1612492683
Murud,18.3258,72.965,74.46,53,22,6.53,IN,1612492976
Burgeo,47.6167,-57.6152,41.54,91,100,17.63,CA,1612492976
Mataura,-46.1927,168.8643,74.73,38,100,2.89,NZ,1612492412
Yellowknife,62.456,-114.3525,-31.0,75,1,8.05,CA,1612492206
Bambous Virieux,-20.3428,57.7575,78.01,83,20,2.3,MU,1612492416
Gravdal,68.1214,13.5031,35.17,83,100,16.37,NO,1612492977
Ushuaia,-54.8,-68.3,44.6,81,40,34.52,AR,1612492408
Tigil',57.8,158.6667,6.51,91,89,3.0,RU,1612492977
Bluff,-46.6,168.3333,58.08,72,100,12.68,NZ,1612492413
Mount Gambier,-37.8333,140.7667,64.4,55,40,14.97,AU,1612492409
Moussoro,13.6408,16.4901,63.75,28,0,16.44,TD,1612492883
Punta Arenas,-53.15,-70.9167,48.2,66,40,16.11,CL,1612492978
Yar-Sale,66.8333,70.8333,-22.27,87,2,5.75,RU,1612492428
Sisimiut,66.9395,-53.6735,7.45,76,100,10.96,GL,1612492467
Pontalina,-17.525,-49.4472,72.46,85,100,3.18,BR,1612492979
Hilo,19.7297,-155.09,71.6,73,40,16.11,US,1612492184
Jamestown,42.097,-79.2353,37.0,40,75,5.75,US,1612492412
Port Alfred,-33.5906,26.891,66.99,89,57,9.55,ZA,1612492979
Sørland,67.667,12.6934,37.13,77,100,18.61,NO,1612492341
Saint-Philippe,-21.3585,55.7679,78.8,73,90,6.91,RE,1612492423
Avarua,-21.2078,-159.775,84.2,65,40,4.61,CK,1612492419
Río Viejo,8.5874,-73.839,81.52,59,41,2.48,CO,1612492980
Dikson,73.5069,80.5464,-10.88,90,100,10.49,RU,1612492388
Palencia,42.4167,-4.5,41.0,94,95,3.0,ES,1612492981
Limulunga,-15.0969,23.1376,66.79,94,91,6.17,ZM,1612492981
Puerto Ayora,-0.7393,-90.3518,77.0,95,16,3.0,EC,1612492271
Cape Town,-33.9258,18.4232,66.99,88,0,11.5,ZA,1612492358
Bengkulu,-3.8004,102.2655,84.83,62,26,3.27,ID,1612492425
Yulara,-25.2406,130.9889,69.8,60,90,14.97,AU,1612492331
Sangar,63.9242,127.4739,-36.29,80,32,4.99,RU,1612492982
North Bend,43.4065,-124.2243,46.4,87,1,12.66,US,1612492422
Tocopilla,-22.092,-70.1979,67.42,61,56,1.3,CL,1612492982
Hithadhoo,-0.6,73.0833,82.45,76,100,11.54,MV,1612492418
East London,-33.0153,27.9116,72.81,75,92,7.07,ZA,1612492186
Airai,-8.9266,125.4092,65.86,100,100,4.14,TL,1612492210
Constitución,-35.3333,-72.4167,59.95,90,88,3.13,CL,1612492844
Pacific Grove,36.6177,-121.9166,54.0,76,1,6.87,US,1612492984
Ilulissat,69.2167,-51.1,3.2,36,75,20.71,GL,1612492418
Pemangkat,1.1667,108.9667,77.25,90,100,14.52,ID,1612492984
Te Anau,-45.4167,167.7167,75.02,36,52,2.75,NZ,1612492442
Upernavik,72.7868,-56.1549,-4.74,71,99,6.85,GL,1612492417
Kholodnyy,62.7167,147.95,-7.91,85,100,3.47,RU,1612492985
Hermanus,-34.4187,19.2345,64.0,92,7,1.99,ZA,1612492419
New Norfolk,-42.7826,147.0587,80.01,61,100,1.99,AU,1612492422
George Town,5.4112,100.3354,82.4,65,20,3.44,MY,1612492904
Ribeira Grande,38.5167,-28.7,55.62,67,43,18.68,PT,1612492312
Goderich,43.7501,-81.7165,33.8,47,100,14.97,CA,1612492986
Oranjestad,12.524,-70.027,80.6,83,20,16.11,AW,1612492793
Homer,59.6425,-151.5483,26.01,74,1,3.44,US,1612492703
Aswān,24.0934,32.907,55.9,68,0,10.87,EG,1612492987
Nikolskoye,59.7035,30.7861,8.01,78,40,8.95,RU,1612492424
Khatanga,71.9667,102.5,-30.86,78,0,9.26,RU,1612492414
Stawell,-37.05,142.7667,65.37,51,83,10.27,AU,1612492987
Zeya,53.75,127.2667,-14.28,82,92,2.46,RU,1612492988
Nemuro,43.3236,145.575,17.6,53,40,10.36,JP,1612492988
Moroni,-11.7022,43.2551,80.96,70,79,2.06,KM,1612492968
Arlit,18.7369,7.3853,61.2,29,83,6.51,NE,1612492425
Isla Vista,34.4133,-119.861,55.4,58,1,3.44,US,1612492988
Clyde River,70.4692,-68.5914,-20.2,69,75,18.41,CA,1612492442
Kruisfontein,-34.0033,24.7314,63.0,95,0,1.01,ZA,1612492446
Krasnyy Luch,48.1395,38.9371,41.83,94,99,13.76,UA,1612492990
Kargasok,59.0556,80.8572,-2.6,92,92,5.77,RU,1612492990
Den Helder,52.9599,4.7593,39.2,93,75,11.5,NL,1612492990
Burnie,-41.0667,145.9167,66.99,98,100,5.99,AU,1612492419
Carnarvon,-24.8667,113.6333,78.8,73,75,18.41,AU,1612492421
Taoudenni,22.6783,-3.9836,67.98,20,16,6.24,ML,1612492188
Viseu,40.661,-7.9097,45.0,92,97,3.0,PT,1612492991
Conakry,9.538,-13.6773,77.31,74,0,8.7,GN,1612492991
Tasiilaq,65.6145,-37.6368,28.4,74,75,10.36,GL,1612492415
Mizdah,31.4451,12.9801,52.32,45,3,4.85,LY,1612492992
Lafiagi,8.8667,5.4167,73.9,20,0,0.2,NG,1612492992
Vaini,-21.2,-175.2,80.6,89,75,5.75,TO,1612492408
Jacqueville,5.2052,-4.4146,82.4,94,20,6.91,CI,1612492993
Lompoc,34.6391,-120.4579,53.6,76,1,8.05,US,1612492412
Severo-Kuril'sk,50.6789,156.125,13.75,86,81,10.27,RU,1612492422
Yashkino,55.8736,85.4265,3.2,85,40,6.71,RU,1612492994
Geraldton,-28.7667,114.6,78.8,29,100,24.16,AU,1612492418
Rantepao,-2.9701,119.8978,83.84,54,98,2.44,ID,1612492994
Goygol,40.5869,46.3158,50.0,66,90,11.5,AZ,1612492995
Bredasdorp,-34.5322,20.0403,62.6,88,4,2.3,ZA,1612492995
Kropotkin,45.4375,40.5756,48.52,86,100,16.04,RU,1612492745
Ponta do Sol,32.6667,-17.1,48.0,68,91,8.99,PT,1612492426
Malakanagiri,18.35,81.9,68.0,38,0,1.97,IN,1612492996
Hambantota,6.1241,81.1185,71.6,94,40,3.44,LK,1612492448
Castro,-24.7911,-50.0119,62.83,92,4,6.11,BR,1612492447
Buin,-33.7333,-70.75,73.0,64,0,11.5,CL,1612492996
Butaritari,3.0707,172.7902,80.22,84,100,13.78,KI,1612492417
Henties Bay,-22.116,14.2845,66.0,84,9,1.99,NA,1612492429
Laas,46.6166,10.7002,39.0,86,0,3.22,IT,1612492428
Broome,42.2506,-75.833,30.2,59,1,3.44,US,1612492947
Oriximiná,-1.7656,-55.8661,77.68,81,2,3.15,BR,1612492456
Cardonal,20.6,-99.1333,62.15,36,0,1.77,MX,1612492998
Uthai Thani,15.3833,99.55,82.99,48,0,5.46,TH,1612492998
Caucayá,-0.1934,-74.7819,73.76,94,99,2.33,CO,1612492152
Kalianget,-7.05,113.9333,83.44,77,66,19.04,ID,1612492999
Winder,33.9926,-83.7202,46.4,46,40,4.61,US,1612492999
Baruun-Urt,46.6806,113.2792,11.48,93,19,9.42,MN,1612492475
Sechura,-5.5569,-80.8222,76.64,64,92,12.95,PE,1612492999
Katherine,-14.4667,132.2667,84.2,70,75,5.75,AU,1612492434
Saskylakh,71.9167,114.0833,-34.56,79,64,1.88,RU,1612493000
Portland,45.5234,-122.6762,45.0,87,90,8.05,US,1612492717
Coyhaique,-45.5752,-72.0662,64.4,52,0,3.44,CL,1612492471
Três Passos,-27.4556,-53.9319,64.99,94,0,4.25,BR,1612493001
Mahajanga,-15.7167,46.3167,73.4,94,20,5.75,MG,1612493001
Kieta,-6.2167,155.6333,85.78,68,54,6.62,PG,1612493001
Haines Junction,60.7522,-137.5108,-18.4,69,20,1.34,CA,1612492460
Maţāy,28.419,30.7792,54.86,90,0,10.76,EG,1612493002
Bahir Dar,11.5936,37.3908,63.07,43,0,2.13,ET,1612493002
Pangody,65.85,74.4859,-23.66,87,82,5.68,RU,1612492715
Port Elizabeth,-33.918,25.5701,62.6,94,0,1.14,ZA,1612492423
Indramayu,-6.3264,108.32,81.5,81,99,20.56,ID,1612492932
Saldanha,-33.0117,17.9442,60.8,82,0,5.75,ZA,1612492412
Russell,32.3502,-85.1999,53.6,57,90,9.17,US,1612493003
Esperance,-33.8667,121.9,62.6,55,90,12.66,AU,1612492423
Owensboro,37.7742,-87.1133,42.8,87,90,26.46,US,1612492738
Dunyapur,29.7995,71.7196,51.8,87,0,2.98,PK,1612493004
Doda,33.1333,75.5667,45.09,54,100,2.95,IN,1612493004
Ariogala,55.2667,23.4667,14.0,79,40,4.61,LT,1612493004
Prainha,-1.8,-53.48,78.35,76,40,5.37,BR,1612493005
Algiers,36.7525,3.042,69.8,26,75,24.16,DZ,1612493005
Barrow,71.2906,-156.7887,-27.4,75,75,8.05,US,1612493005
Yumen,40.2833,97.2,35.91,53,0,23.06,CN,1612492459
Victoria Point,-27.5833,153.3,86.0,64,1,4.0,AU,1612493006
Kavieng,-2.5744,150.7967,83.5,73,89,1.68,PG,1612492458
Mildura,-34.2,142.15,73.0,40,40,6.91,AU,1612493006
Charters Towers,-20.1,146.2667,89.65,48,90,11.99,AU,1612493006
Lavrentiya,65.5833,-171.0,-7.6,89,100,17.92,RU,1612492408
Mar del Plata,-38.0023,-57.5575,64.99,77,75,9.22,AR,1612492151
Tegul'det,57.3064,88.1667,2.75,94,94,6.17,RU,1612493007
Chittarkonda,18.1167,82.0833,70.57,44,0,0.56,IN,1612493007
Chokurdakh,70.6333,147.9167,-15.05,86,97,20.4,RU,1612492425
Ust-Maya,60.4167,134.5333,-31.52,79,100,0.67,RU,1612493008
Sinnamary,5.3833,-52.95,76.96,81,75,13.78,GF,1612492420
Krasnogorskoye,52.2953,86.1979,20.53,97,100,1.12,RU,1612493008
Tsiroanomandidy,-18.7667,46.0333,67.75,96,100,0.98,MG,1612493008
Tuatapere,-46.1333,167.6833,65.88,56,87,7.18,NZ,1612492424
Tomatlán,19.9333,-105.25,66.04,80,0,2.77,MX,1612493009
Saint-Augustin,51.226,-58.6502,34.47,96,100,13.31,CA,1612492454
Thompson,55.7435,-97.8558,-9.4,70,90,9.22,CA,1612492416
Zaria,11.1113,7.7227,65.62,26,0,10.71,NG,1612493009
São José da Coroa Grande,-8.8978,-35.1478,78.1,82,12,9.37,BR,1612493010
Ambulu,-8.345,113.6058,85.28,66,7,3.36,ID,1612493010
Mocuba,-16.8392,36.9856,73.04,97,0,2.08,MZ,1612493010
San Patricio,28.017,-97.5169,71.6,78,1,11.5,US,1612492422
Ahipara,-35.1667,173.1667,69.01,68,100,6.64,NZ,1612492450
Belmonte,-15.8631,-38.8828,78.8,78,0,5.75,BR,1612492440
Port Hardy,50.6996,-127.4199,42.8,93,90,4.61,CA,1612492468
Oistins,13.0667,-59.5333,78.8,65,20,18.41,BB,1612493011
Half Moon Bay,37.4636,-122.4286,55.4,53,1,5.75,US,1612492455
Teófilo Otoni,-17.8575,-41.5053,68.65,92,1,3.27,BR,1612493012
Plettenberg Bay,-34.0527,23.3716,64.4,87,0,1.54,ZA,1612492451
Naze,28.3667,129.4833,68.0,52,20,6.91,JP,1612493012
Nabire,-3.3667,135.4833,82.53,80,100,4.0,ID,1612493012
Ugoofaaru,5.6667,73.0,81.61,69,100,6.96,MV,1612493013
Quatre Cocos,-20.2078,57.7625,78.01,83,20,2.3,MU,1612492419
Ostrovnoy,68.0531,39.5131,12.58,94,100,20.47,RU,1612492448
Zhezkazgan,47.8043,67.7144,10.4,85,90,2.24,KZ,1612493013
Fairbanks,64.8378,-147.7164,-18.4,83,1,1.74,US,1612492274
Diourbel,14.6628,-16.3925,67.69,57,100,13.15,SN,1612493014
Praia da Vitória,38.7333,-27.0667,51.8,87,75,19.98,PT,1612492931
Tiznit Province,29.5833,-9.5,51.46,65,91,7.43,MA,1612493014
Front Royal,38.9182,-78.1944,41.0,38,40,4.61,US,1612492971
Fortuna,40.5982,-124.1573,48.99,87,1,8.05,US,1612492279
Shellbrook,53.2168,-106.4011,3.2,72,90,5.75,CA,1612493015
Mweka,-4.85,21.5667,68.23,93,60,1.3,CD,1612493015
Beloha,-25.1667,45.05,78.04,75,18,7.09,MG,1612493016
Brae,60.3964,-1.353,37.4,56,90,18.41,GB,1612492424
Marau,-28.4492,-52.2,58.06,96,14,2.08,BR,1612493016
Beringovskiy,63.05,179.3167,-0.74,92,100,8.55,RU,1612493016
Makkah al Mukarramah,21.4267,39.8261,68.31,50,74,12.91,SA,1612492728
Paita,-5.0892,-81.1144,74.17,78,91,11.79,PE,1612493017
Torbay,47.6666,-52.7314,39.99,100,90,5.75,CA,1612492433
Rawson,-43.3002,-65.1023,84.85,20,0,24.11,AR,1612492457
Chicama,-7.8447,-79.1469,73.0,65,99,4.45,PE,1612493017
Kamenka,51.3223,42.7678,39.0,98,100,13.42,RU,1612492418
Dogondoutchi,13.6393,4.0287,69.31,22,0,10.96,NE,1612493018
Bathsheba,13.2167,-59.5167,78.8,65,20,18.41,BB,1612493018
Verkhnevilyuysk,63.4453,120.3167,-35.72,82,45,2.19,RU,1612493018
Havre-St-Pierre,50.2334,-63.5986,32.0,100,90,4.61,CA,1612492444
São Félix do Xingu,-6.6447,-51.995,75.79,84,92,0.92,BR,1612493019
Erzin,36.9559,36.2,54.0,66,0,14.0,TR,1612492738
Kahului,20.8947,-156.47,71.6,68,90,11.5,US,1612492304
Vila Velha,-20.3297,-40.2925,79.0,83,20,10.36,BR,1612493020
Vilyaka,57.1846,27.6722,6.91,95,35,5.68,LV,1612493020
Surgut,61.25,73.4167,-0.4,92,40,4.47,RU,1612492819
Chui,-33.6971,-53.4616,65.64,77,89,13.22,UY,1612493020
Klaksvík,62.2266,-6.589,35.6,60,40,13.8,FO,1612492431
Pauini,-7.7136,-66.9764,75.02,98,100,2.95,BR,1612493021
Caravelas,-17.7125,-39.2481,77.14,83,0,8.1,BR,1612492445
Arica,-18.475,-70.3042,69.8,73,0,3.44,CL,1612492772
Ancud,-41.8697,-73.8203,69.8,49,0,11.5,CL,1612493021
Sawtell,-30.3833,153.1,81.0,65,8,11.5,AU,1612493022
Warrington,53.3925,-2.5802,45.0,93,90,3.44,GB,1612493022
La Ronge,55.1001,-105.2842,-0.4,78,100,9.22,CA,1612493022
Druzhinino,56.7895,59.5143,33.8,97,100,5.77,RU,1612493022
Mersing,2.4312,103.8405,80.6,83,40,4.61,MY,1612493023
Mayo,38.8876,-76.5119,37.99,75,1,3.44,US,1612492461
Manokwari,-0.8667,134.0833,82.29,74,100,6.17,ID,1612493023
Wanning,18.8003,110.3967,74.12,69,11,7.52,CN,1612493023
Faanui,-16.4833,-151.75,82.04,65,12,5.61,PF,1612492994
Quimper,48.0,-4.1,42.8,100,75,3.44,FR,1612493024
Martapura,-3.4167,114.85,82.4,83,40,5.75,ID,1612493024
Arraial do Cabo,-22.9661,-42.0278,77.05,84,18,25.64,BR,1612493024
Saint Paul Harbor,57.79,-152.4072,28.4,74,1,6.91,US,1612492425
Norman Wells,65.282,-126.8329,-41.8,66,40,6.91,CA,1612492444
Kaitangata,-46.2817,169.8464,60.01,71,69,14.0,NZ,1612493025
Snåase,64.2457,12.3778,8.22,88,0,1.52,NO,1612493025
Petropavlovsk-Kamchatskiy,53.0452,158.6483,14.0,41,20,4.47,RU,1612492879
Samarai,-10.6167,150.6667,84.34,70,50,4.56,PG,1612493025
Denpasar,-8.65,115.2167,84.2,79,20,6.91,ID,1612492865
Yokosuka,35.2836,139.6672,52.0,35,45,4.0,JP,1612493026
Mosetse,-20.75,26.65,68.13,92,74,5.59,BW,1612493026
Coquimbo,-29.9533,-71.3436,60.8,88,90,6.91,CL,1612492235
Segovia,41.1667,-4.0,46.0,91,100,0.94,ES,1612493026
Hinton,53.4001,-117.5857,26.6,74,100,2.3,CA,1612493027
Lamu,-2.2717,40.902,75.33,87,0,7.61,KE,1612493027
Provideniya,64.3833,-173.3,-4.58,89,100,27.04,RU,1612492459
Tuktoyaktuk,69.4541,-133.0374,-32.8,75,40,9.22,CA,1612492430
Saint-Joseph,-21.3667,55.6167,80.6,69,90,5.75,RE,1612493028
Mehamn,71.0357,27.8492,27.14,91,100,14.03,NO,1612492232
Ixtapa,20.7,-105.2,71.6,88,1,5.75,MX,1612493028
Mbuji-Mayi,-6.15,23.6,67.95,83,66,2.62,CD,1612493028
Nome,64.5011,-165.4064,10.0,72,90,18.41,US,1612493029
Mossamedes,-15.1961,12.1522,70.21,74,18,7.36,AO,1612493029
Concepción del Oro,24.6333,-101.4167,56.73,33,0,2.37,MX,1612493029
Bose,45.4612,8.0137,46.99,96,100,0.38,IT,1612493029
Lalibela,12.0333,39.0333,46.15,56,3,0.85,ET,1612493030
Węgrów,52.3995,22.0163,21.99,87,84,3.87,PL,1612493030
Pionki,51.476,21.4499,28.0,81,43,3.67,PL,1612493030
Shingū,33.7333,135.9833,50.0,43,40,6.91,JP,1612492446
Hasaki,35.7333,140.8333,46.4,34,20,8.05,JP,1612492750
Marawi,7.9986,124.2928,82.0,79,50,4.0,PH,1612492445
Kapit,2.0167,112.9333,84.78,67,100,2.8,MY,1612493031
San Vicente,-26.6167,-54.1333,61.56,99,0,3.15,AR,1612493031
Linjiang,41.8069,126.9078,30.81,89,47,6.87,CN,1612492944
Knyaginino,55.8228,45.0349,33.98,99,100,5.73,RU,1612493032
Hammerfest,70.6634,23.6821,30.2,74,75,11.5,NO,1612493032
La Santisima Trinidad,-14.8333,-64.9,73.09,93,100,4.45,BO,1612492449
Vestmannaeyjar,63.4427,-20.2734,39.63,73,100,31.0,IS,1612492745
Fort Nelson,58.8053,-122.7002,-14.8,76,90,2.3,CA,1612493033
Burē,10.7,37.0667,57.0,49,0,4.65,ET,1612492821
Mahébourg,-20.4081,57.7,75.2,83,20,2.3,MU,1612493033
Ulladulla,-35.35,150.4667,80.6,65,40,14.97,AU,1612493033
Kütahya,39.4242,29.9833,33.8,100,0,4.61,TR,1612493033
Hanchuan,30.65,113.7667,44.6,100,40,6.71,CN,1612493034
Gobabis,-22.45,18.9667,68.68,74,22,5.1,NA,1612492455
Marrakesh,31.6315,-8.0083,50.0,100,75,11.5,MA,1612492850
Pochinki,54.6988,44.8668,35.37,99,100,7.38,RU,1612493034
Champerico,14.3,-91.9167,64.99,96,11,5.48,GT,1612493035
Redlands,34.0556,-117.1825,64.4,20,1,5.75,US,1612493035
Neiafu,-18.65,-173.9833,82.4,89,75,10.36,TO,1612493035
Isabela,6.7085,121.9711,84.2,51,75,3.44,PH,1612493035
Acapulco de Juárez,16.8634,-99.8901,80.6,74,75,4.61,MX,1612493036
Guiratinga,-16.3494,-53.7583,74.84,83,100,0.4,BR,1612493036
Copiapó,-27.3667,-70.3333,60.8,77,90,8.05,CL,1612493036
Mattawa,46.7379,-119.9028,46.4,65,1,6.91,US,1612493036
Severo-Yeniseyskiy,60.3725,93.0408,-0.83,93,97,8.19,RU,1612493037
Cabo San Lucas,22.8909,-109.9124,77.0,38,40,3.44,MX,1612492452
Thinadhoo,0.5333,72.9333,82.4,77,100,13.53,MV,1612493037
Nanortalik,60.1432,-45.2371,21.27,78,100,8.86,GL,1612493037
Uusikaupunki,60.8004,21.4084,5.0,85,0,3.44,FI,1612493037
Pangnirtung,66.1451,-65.7125,6.64,89,99,2.93,CA,1612492472
Coro,11.4045,-69.6734,77.32,83,99,15.68,VE,1612493038
Northam,51.0333,-4.2167,42.01,95,19,3.0,GB,1612493038
Miyako,39.6367,141.9525,34.88,76,27,9.17,JP,1612493038
Cherskiy,68.75,161.3,-6.47,76,88,6.98,RU,1612492447
Kanhangad,12.3081,75.1063,78.48,65,67,5.5,IN,1612493039
Auki,-8.7676,160.7034,85.6,64,35,8.34,SB,1612493039
Agropoli,40.3469,14.9966,55.99,76,100,1.99,IT,1612493039
Palmas Bellas,9.2319,-80.0867,81.0,76,93,9.48,PA,1612493040
Mandera,3.9366,41.867,69.69,82,0,6.73,KE,1612493040
São João da Barra,-21.6403,-41.0511,77.11,82,0,20.33,BR,1612493040
Porosozero,62.7191,32.727,3.65,92,100,11.18,RU,1612493040
Moerai,-22.4333,-151.3333,81.01,73,53,14.0,PF,1612492477
Sola,-13.8833,167.55,76.42,90,100,9.37,VU,1612492467
Maceió,-9.6658,-35.7353,75.2,94,20,2.3,BR,1612493041
Kendari,-3.945,122.4989,85.5,71,99,1.3,ID,1612492477
Utena,55.5,25.6,10.35,96,85,7.23,LT,1612492834
Zwedru,6.0667,-8.1281,72.81,97,18,2.98,LR,1612493041
Galle,6.0367,80.217,77.65,81,47,6.33,LK,1612493042
Ambilobe,-13.2,49.05,73.83,92,43,2.06,MG,1612493042
Methóni,36.8197,21.7049,51.01,100,2,4.61,GR,1612493042
Isangel,-19.55,169.2667,69.8,100,75,3.44,VU,1612493042
Camrose,53.0168,-112.8353,1.4,78,52,12.66,CA,1612493043
Gorontalo,0.5412,123.0595,88.11,60,100,1.79,ID,1612493043
Polson,47.6936,-114.1632,30.0,56,100,6.8,US,1612493043
Comodoro Rivadavia,-45.8667,-67.5,73.4,56,0,3.44,AR,1612492219
Belyy Yar,53.6039,91.3903,6.8,92,100,2.24,RU,1612493044
Nizhniy Kuranakh,58.8353,125.4869,-16.13,82,0,1.52,RU,1612492478
Mareeba,-17.0,145.4333,90.0,66,87,8.05,AU,1612493044
Sibu,2.3,111.8167,78.8,89,40,2.3,MY,1612492779
Katobu,-4.9408,122.5276,85.57,68,93,5.23,ID,1612493045
Svecha,58.2785,47.5164,17.46,97,100,3.42,RU,1612493045
Søvik,65.9333,12.4667,21.2,86,0,1.14,NO,1612493045
Kidal,18.4411,1.4078,66.43,23,73,12.01,ML,1612492475
Takāb,36.4009,47.1133,35.92,88,100,2.91,IR,1612493045
Taltal,-25.4,-70.4833,64.51,75,44,1.36,CL,1612493046
Takoradze,4.8845,-1.7554,78.85,88,0,7.65,GH,1612493046
Eilat,29.5581,34.9482,60.8,67,20,4.16,IL,1612493046
Pisco,-13.7,-76.2167,72.0,78,0,14.97,PE,1612493047
Pineville,31.3224,-92.4343,64.4,82,20,9.22,US,1612493047
Tiarei,-17.5333,-149.3333,82.0,65,12,1.99,PF,1612493047
Marzuq,14.4,46.4667,53.91,60,0,3.22,YE,1612492469
Rio Grande,-32.035,-52.0986,66.2,88,0,11.5,BR,1612493048
Ukiah,39.1502,-123.2078,51.8,62,1,3.53,US,1612493048
Lázaro Cárdenas,17.9583,-102.2,73.71,81,0,3.27,MX,1612492201
Ust-Tsilma,65.441,52.1498,-1.53,92,100,9.46,RU,1612493048
Port Hedland,-20.3167,118.5667,85.6,67,42,11.48,AU,1612493048
Lüderitz,-26.6481,15.1594,65.98,64,0,17.29,NA,1612493010
Lagan,45.3929,47.3707,40.39,94,100,7.38,RU,1612493049
Khandagayty,50.7333,92.05,6.87,90,99,1.43,RU,1612493049
Berlevåg,70.8578,29.0864,27.81,91,100,15.39,NO,1612493050
Lorengau,-2.0226,147.2712,80.56,78,100,7.36,PG,1612492463
Kwinana,-32.25,115.7667,73.0,35,0,18.41,AU,1612493050
Chumikan,54.7183,135.315,-14.66,80,5,26.73,RU,1612493050
Aripuanã,-9.1667,-60.6333,75.15,95,94,0.65,BR,1612493051
Karlskoga,59.3267,14.5239,14.0,85,33,6.91,SE,1612493051
Sühbaatar,50.2314,106.2078,17.85,94,100,7.14,MN,1612493051
Bagdarin,54.4333,113.6,-0.13,84,100,1.41,RU,1612493051
Honningsvåg,70.9821,25.9704,30.61,90,100,17.13,NO,1612492455
Chiang Klang,19.2938,100.8617,66.2,82,0,2.24,TH,1612493052
Rafaela,-31.2503,-61.4867,71.01,53,0,1.99,AR,1612493016
Lae,-6.7221,146.9847,86.0,70,40,3.44,PG,1612493052
Mandalgovi,45.7625,106.2708,21.29,85,1,10.0,MN,1612492463
Verkhniy Avzyan,53.5289,57.5372,34.88,93,100,5.01,RU,1612493053
Sechelt,49.4664,-123.7694,41.0,95,100,1.01,CA,1612492910
Leningradskiy,69.3833,178.4167,-26.93,85,100,10.98,RU,1612493053
Morón,-34.6534,-58.6198,73.99,58,0,3.0,AR,1612493053
Okhotsk,59.3833,143.3,3.09,87,92,11.18,RU,1612493053
Arrondissement de Moulins,46.5,3.3333,46.0,100,99,2.3,FR,1612493054
Nassau,40.7507,-73.5829,37.0,69,1,6.91,US,1612493054
Phuket,8.0,98.25,82.4,69,20,13.8,TH,1612492463
Ucluelet,48.9329,-125.5528,46.99,93,100,4.0,CA,1612492869
Birjand,32.8663,59.2211,24.8,24,0,9.22,IR,1612493055
Zhoucheng,35.9122,116.3117,52.12,44,100,7.43,CN,1612493055
Santa Maria,-29.6842,-53.8069,66.2,94,0,3.44,BR,1612493055
Padang,-0.9492,100.3543,87.8,62,20,2.3,ID,1612493055
Panguna,-6.3164,155.4848,80.74,75,30,2.19,PG,1612493056
Kingman,35.1894,-114.053,46.4,29,1,17.27,US,1612493056
Vao,-22.6667,167.4833,78.91,88,0,16.75,NC,1612493056
Tessalit,20.1986,1.0114,66.24,23,50,15.05,ML,1612493056
Gari,59.4307,62.3497,9.95,97,100,4.27,RU,1612493057
Kumul,42.8,93.45,33.69,77,0,3.04,CN,1612493057
Talnakh,69.4865,88.3972,-22.7,86,100,0.85,RU,1612492461
Rena,61.1348,11.3641,6.89,89,57,6.96,NO,1612493057
Morant Bay,17.8815,-76.4093,78.8,73,75,9.22,JM,1612493058
Hualmay,-11.0964,-77.6139,70.16,82,98,5.68,PE,1612493058
Namatanai,-3.6667,152.4333,84.61,72,16,4.76,PG,1612493058
Kalisz,51.7611,18.091,26.01,86,68,7.65,PL,1612493058
Envira,-7.3,-70.2167,73.92,95,100,1.61,BR,1612493058
Parabel',58.6978,81.4825,-2.99,92,76,5.64,RU,1612493059
Griffith,41.5284,-87.4237,25.0,93,90,24.16,US,1612493059
Oodweyne,9.4092,45.064,56.57,47,9,6.67,SO,1612493059
Port Lincoln,-34.7333,135.8667,66.52,59,68,22.97,AU,1612493059
Basco,20.4487,121.9702,71.38,73,57,20.47,PH,1612492470
Biak,-0.9131,122.8766,82.42,72,100,1.74,ID,1612493060
Emet,39.343,29.2585,40.64,81,0,1.88,TR,1612493060
Waipawa,-41.4122,175.5153,59.0,77,75,17.27,NZ,1612493060
Sinazongwe,-17.2614,27.4618,73.29,86,5,3.49,ZM,1612493060
Onalaska,43.8844,-91.2351,17.6,67,90,23.02,US,1612493061
São Filipe,14.8961,-24.4956,71.71,74,100,10.47,CV,1612492472
Zelenoborsk,61.4669,64.0333,4.75,95,95,5.01,RU,1612493061
Bosaso,11.2842,49.1816,69.12,71,3,4.27,SO,1612493061
Hobyo,5.3505,48.5268,75.9,79,55,16.08,SO,1612493061
Taunggyi,20.7833,97.0333,70.74,40,0,1.59,MM,1612493062
Marabu,4.4148,114.0089,80.6,94,40,10.36,MY,1612493062
‘Ewa Beach,21.3156,-158.0072,75.2,50,20,17.27,US,1612493062
Kathu,7.9178,98.3332,82.4,69,20,13.8,TH,1612492769
Okha,53.5739,142.9478,-9.29,89,100,23.09,RU,1612493063
Port Hawkesbury,45.6169,-61.3485,33.01,100,90,12.66,CA,1612493063
Paamiut,61.994,-49.6678,18.16,74,0,5.19,GL,1612493063
St. George's,12.0564,-61.7485,78.8,89,40,14.97,GD,1612493063
Talara,-4.5772,-81.2719,73.78,81,49,11.97,PE,1612493064
Agarak,39.2068,46.5446,45.18,59,100,6.82,AM,1612493064
Saint-Pierre,-21.3393,55.4781,80.6,69,90,5.75,RE,1612493064
Makakilo City,21.3469,-158.0858,75.2,50,20,17.27,US,1612493042
Warren,39.4334,-84.1666,37.0,100,75,17.27,US,1612493065
Vredendal,-31.6683,18.5012,62.58,88,52,5.46,ZA,1612493065
Sabang,5.8933,95.3214,81.39,76,49,25.59,ID,1612493065
Santa Cruz del Norte,23.1539,-81.9236,62.6,77,1,6.91,CU,1612493065
Yerbogachën,61.2767,108.0108,-19.39,86,80,0.94,RU,1612493066
Jalu,29.0331,21.5482,51.4,86,0,4.21,LY,1612493066
Soanierana Ivongo,-16.9167,49.5833,75.72,87,28,3.76,MG,1612493066
Orcopampa,-15.2661,-72.3417,47.62,69,100,5.12,PE,1612493066
Vaitape,-16.5167,-151.75,82.06,65,11,5.73,PF,1612493067
San Policarpo,12.1791,125.5072,81.5,84,98,17.11,PH,1612493015
Sarangani,5.4033,125.4636,82.08,80,100,20.0,PH,1612493067
Dingle,10.9995,122.6711,82.74,79,88,15.95,PH,1612493067
Tacna,-18.0056,-70.2483,69.8,73,0,3.44,PE,1612493068
San Francisco,37.7749,-122.4194,55.4,38,20,11.5,US,1612492883
Hong Kong,22.2855,114.1577,69.01,71,36,1.99,HK,1612492976
Husavik,66.0449,-17.3389,26.6,74,0,18.41,IS,1612493068
Shimoda,34.6667,138.95,50.0,57,75,5.75,JP,1612493069
Payo,-3.7508,103.6372,77.7,85,95,4.25,ID,1612493069
Riyadh,24.6877,46.7219,60.8,31,0,5.75,SA,1612493039
Katangli,51.7102,143.2326,-5.53,87,100,16.71,RU,1612493069
Zenzeli,45.9241,47.0474,41.23,90,100,11.12,RU,1612493069
Praia,14.9215,-23.5087,69.8,78,75,14.97,CV,1612493070
Kaeo,-35.1,173.7833,75.99,65,98,8.99,NZ,1612493070
Killarney,52.05,-9.5167,39.11,89,11,5.28,IE,1612493070
Qaqortoq,60.7167,-46.0333,14.0,52,87,5.75,GL,1612493070
Khani,41.9563,42.9566,46.4,81,90,3.44,GE,1612493070
Bontang,0.1333,117.5,85.05,65,100,1.54,ID,1612493071
Bonavista,48.6499,-53.1147,39.0,100,97,1.14,CA,1612493071
Bo Phloi,14.3236,99.5161,84.99,35,0,6.71,TH,1612493071
Labuhan,-6.8844,112.2051,82.58,80,88,18.14,ID,1612493071
Deer Lake,49.1667,-57.4316,35.6,93,90,11.5,CA,1612493072
Pindiga,9.9833,10.9333,69.8,23,12,13.56,NG,1612493072
Iqaluit,63.7506,-68.5145,12.2,85,90,9.22,CA,1612493072
Edd,13.9297,41.6925,76.05,27,0,12.93,ER,1612493072
Pevek,69.7008,170.3133,-15.27,80,75,2.66,RU,1612492821
Nelson Bay,-32.7167,152.15,84.2,58,20,12.66,AU,1612493073
Kasimov,54.9411,41.3953,22.82,98,100,14.23,RU,1612493073
Waingapu,-9.6567,120.2641,85.24,71,60,12.93,ID,1612493073
Cayenne,4.9333,-52.3333,78.8,83,75,5.75,GF,1612493073
Korla,41.7597,86.1469,29.12,76,30,5.03,CN,1612493027
Davila,18.4726,120.5763,78.8,65,20,8.05,PH,1612493074
Itarema,-2.9248,-39.9167,78.31,82,96,12.1,BR,1612493074
Rondonópolis,-16.4708,-54.6356,75.38,87,99,3.36,BR,1612493074
Great Yarmouth,52.6083,1.7305,46.4,93,75,4.61,GB,1612493074
Phang Nga,8.4509,98.5298,82.4,69,20,12.66,TH,1612493075
Willowmore,-33.2926,23.4895,61.07,77,0,3.76,ZA,1612493075
Bichura,50.5881,107.6022,17.01,92,99,4.47,RU,1612493075
Monywa,22.1167,95.1333,72.77,38,4,6.76,MM,1612493075
Øksfjord,70.2396,22.3479,30.2,80,75,3.44,NO,1612493076
Bandarbeyla,9.4942,50.8122,70.54,70,11,10.13,SO,1612493076
El Dorado,38.7666,-120.5177,44.6,61,1,8.97,US,1612493076
Trairi,-3.2778,-39.2689,78.69,81,94,9.24,BR,1612493076
Fairfield,41.2668,-73.3162,33.8,86,1,2.64,US,1612493077
Kerman,30.2832,57.0788,26.6,33,0,6.91,IR,1612492819
Yinchuan,38.4681,106.2731,39.24,54,0,15.05,CN,1612493077
Nortelândia,-14.4547,-56.8028,75.6,88,100,2.86,BR,1612493077
Ruska Poliana,49.417,31.9201,25.56,94,100,19.19,UA,1612493077
Aykhal,66.0,111.5,-33.68,80,14,5.19,RU,1612493078
Kazygurt,41.7589,69.3864,39.2,41,0,9.22,KZ,1612493078
Lewiston,44.1003,-70.2148,28.4,69,1,6.91,US,1612492839
Mount Isa,-20.7333,139.5,95.0,41,40,16.11,AU,1612492996
Yatou,37.15,122.3833,44.44,62,100,20.0,CN,1612493079
Ruteng,-8.6136,120.4721,72.37,88,74,5.39,ID,1612493079
Lupeni,45.3603,23.2383,36.07,82,37,3.8,RO,1612493079
Kaihua,23.3687,104.28,61.63,67,60,8.34,CN,1612493079
Tungor,53.3808,142.9564,-8.95,88,100,19.77,RU,1612493080
The Valley,18.217,-63.0578,78.8,78,20,9.22,AI,1612492953
Tacuatí,-23.45,-56.5833,70.56,77,6,3.85,PY,1612493080
Soe,-9.8607,124.284,72.7,85,98,7.29,ID,1612493080
La Plata,-34.9215,-57.9545,71.01,76,0,8.14,AR,1612492804
Seoul,37.5683,126.9778,35.6,69,75,8.05,KR,1612492800
Mwene-Ditu,-7.0,23.45,64.78,95,100,3.94,CD,1612493081
Sachīn,21.0833,72.8833,64.4,63,0,5.75,IN,1612493081
Aklavik,68.2191,-135.0107,-40.0,67,99,2.3,CA,1612492931
Neryungri,56.6709,124.6491,-15.81,80,99,4.05,RU,1612493082
Andenes,69.3143,16.1194,35.6,69,100,24.16,NO,1612493082
Erbil,36.1926,44.0106,52.52,83,100,5.23,IQ,1612493082
Sémbé,1.6481,14.5806,71.87,85,74,1.1,CG,1612493083
Kedrovyy,56.1667,91.8167,3.2,92,0,2.24,RU,1612493083
Alice Springs,-23.7,133.8833,73.4,64,90,11.5,AU,1612492852
Wuwei,37.9281,102.6414,45.0,21,0,2.35,CN,1612493083
Alekseyevsk,57.8406,108.3492,4.91,92,99,2.93,RU,1612493084
Prince Rupert,54.3161,-130.3201,39.2,93,90,9.22,CA,1612493084
Badhni Kalān,30.6833,75.2833,47.66,90,0,3.67,IN,1612493084
Salinópolis,-0.6136,-47.3561,79.75,85,80,11.34,BR,1612493084
San-Pédro,4.7485,-6.6363,77.25,93,47,6.4,CI,1612493085
Anadyr,64.75,177.4833,5.0,78,40,33.55,RU,1612493085
Zhigansk,66.7697,123.3711,-39.77,76,0,11.83,RU,1612493085
Yagodnoye,62.55,149.6667,-10.5,86,100,4.25,RU,1612493085
Umm Kaddadah,13.6017,26.6876,60.22,33,0,18.39,SD,1612493085
Al Bardīyah,31.7561,25.0865,57.42,85,0,13.51,LY,1612493086
Bonthe,7.5264,-12.505,77.13,87,1,6.33,SL,1612493086
Phalombe,-15.8064,35.6507,67.15,92,24,0.92,MW,1612493086
Teya,60.3778,92.6267,1.58,90,100,6.85,RU,1612493086
Necochea,-38.5473,-58.7368,55.0,92,0,4.88,AR,1612493087
Dauphin,51.1494,-100.0502,5.0,72,90,9.22,CA,1612492930
Nālūt,30.3333,10.85,53.65,43,0,11.92,LY,1612493087
Arrondissement de Laon,49.5667,3.6667,44.6,93,90,3.44,FR,1612493087
Nuuk,64.1835,-51.7216,14.0,52,79,14.97,GL,1612492880
Babu,24.4167,111.5167,76.5,33,0,4.41,CN,1612493088
Kishapu,-3.6167,33.8667,64.65,88,52,2.01,TZ,1612493088
Cutro,39.0353,16.9819,54.0,38,100,1.66,IT,1612493088
Rabo de Peixe,37.8,-25.5833,53.6,71,40,9.22,PT,1612492928
Pabradė,55.0,25.7833,17.6,93,90,5.75,LT,1612493089
Santa Vitória do Palmar,-33.5189,-53.3681,65.16,80,95,13.73,BR,1612493089
Souillac,-20.5167,57.5167,75.2,83,20,2.3,MU,1612493082
Lima,-12.0432,-77.0282,73.99,83,20,12.66,PE,1612493056
Codrington,-38.2667,141.9667,67.5,44,34,6.6,AU,1612493090
Srednekolymsk,67.45,153.6833,-7.83,84,98,14.88,RU,1612493013
High Level,58.5169,-117.136,-18.4,76,20,5.75,CA,1612492855
Harper,4.375,-7.7169,78.33,90,69,7.07,LR,1612493023
Kyzyl,51.7,94.45,15.21,93,100,0.85,RU,1612493090
Vieira de Leiria,39.8695,-8.9324,50.0,93,20,3.44,PT,1612493091
Namtsy,62.7161,129.6658,-45.4,59,90,4.47,RU,1612493091
Tottori-shi,35.5,134.2333,50.0,43,75,5.75,JP,1612493091
Paros,37.0833,25.15,55.99,76,0,3.44,GR,1612493091
Acarí,-15.4311,-74.6158,71.85,71,100,2.84,PE,1612493092
Port Blair,11.6667,92.75,82.17,72,12,13.24,IN,1612493092
Atbasar,51.8,68.3333,29.37,99,100,9.04,KZ,1612493092
Halifax,44.6453,-63.5724,36.0,100,100,2.3,CA,1612492801
Povenets,62.8487,34.8262,5.47,92,100,13.4,RU,1612493093
Māngrol,21.1167,70.1167,66.02,45,0,12.73,IN,1612493093
Vardø,70.3705,31.1107,27.86,90,100,19.37,NO,1612493069
Benguela,-12.5763,13.4055,72.37,84,46,1.7,AO,1612493093
College,64.8569,-147.8028,-18.4,76,40,2.04,US,1612492940
Žiri,46.0422,14.1072,46.99,96,100,4.0,SI,1612493094
Lastoursville,-0.8143,12.7287,73.2,92,100,1.05,GA,1612493094
Monrovia,6.3005,-10.7969,79.14,89,31,7.05,LR,1612493094
Vytegra,61.0064,36.4481,7.11,94,100,10.04,RU,1612493094
Puerto Cabezas,14.0351,-83.3888,72.03,82,22,9.06,NI,1612493095
Igarka,67.4667,86.5833,-36.09,83,70,2.75,RU,1612493095
Rudnya,54.947,31.0934,8.6,85,40,8.95,RU,1612493095
Glamoč,44.0458,16.8486,39.16,93,100,4.65,BA,1612493095
Naryan-Mar,67.6713,53.087,-15.83,87,93,14.03,RU,1612493096
La Paz,-16.5,-68.15,46.4,87,75,6.91,BO,1612492874
Flagstaff,35.1981,-111.6513,30.99,59,1,4.7,US,1612493096
Lundazi,-12.2929,33.1782,63.37,91,30,4.99,ZM,1612493097
Nishihara,26.1842,127.7558,69.8,49,40,8.05,JP,1612493097
Assaí,-23.3733,-50.8414,77.0,83,0,10.36,BR,1612493097
Severnyy,50.677,36.5532,32.0,100,90,15.66,RU,1612493097
Muros,42.7762,-9.0603,46.99,94,68,6.04,ES,1612493097
Jaca,42.569,-0.5499,51.01,71,100,4.7,ES,1612493098
Kapuskasing,49.4169,-82.4331,32.0,64,96,9.22,CA,1612493098
Bithūr,26.6333,80.2833,59.0,88,90,8.12,IN,1612493098
Onega,63.9061,38.1404,2.82,92,100,8.79,RU,1612493098
Zemio,5.0314,25.1361,68.68,75,31,2.24,CF,1612493099
Richards Bay,-28.783,32.0377,73.58,89,89,8.1,ZA,1612492998
Chazuta,-6.5742,-76.1367,75.52,84,100,0.67,PE,1612493099
Tabuk,17.4189,121.4443,76.33,72,43,5.26,PH,1612493099
Dawson Creek,55.7666,-120.2362,-5.8,71,90,3.44,CA,1612493099
