City,Lat,Lng,Max Temp,Humidity,Cloudiness,Wind Speed,Country,Date
Faanui,-16.4833,-151.75,27.0,76,61,4.92,PF,1612152729
Matara,5.9485,80.5353,27.64,72,52,2.22,LK,1612153076
Mataura,-46.1927,168.8643,23.76,46,63,2.38,NZ,1612153017
Torbay,47.6666,-52.7314,-1.11,93,90,8.23,CA,1612152947
Arraial do Cabo,-22.9661,-42.0278,24.71,85,100,11.14,BR,1612152875
Hermanus,-34.4187,19.2345,15.56,78,98,6.12,ZA,1612153018
Moroni,-11.7022,43.2551,27.36,71,99,1.41,KM,1612153018
Kapaa,22.0752,-159.319,23.0,73,40,5.14,US,1612152872
Busselton,-33.65,115.3333,30.56,36,0,1.79,AU,1612153019
Punta Arenas,-53.15,-70.9167,12.0,62,90,14.92,CL,1612153019
Sorong,-0.8833,131.25,28.49,77,99,3.79,ID,1612152774
Brae,60.3964,-1.353,-1.0,69,88,5.66,GB,1612153019
São Miguel dos Campos,-9.7811,-36.0936,23.0,94,40,1.54,BR,1612153020
Bluff,-46.6,168.3333,16.01,70,36,7.42,NZ,1612153020
Port Alfred,-33.5906,26.891,19.44,84,89,2.24,ZA,1612153020
Aswān,24.0934,32.907,12.08,47,0,2.86,EG,1612152796
Marzuq,14.4,46.4667,13.85,42,11,0.75,YE,1612152772
Portland,45.5234,-122.6762,9.44,81,90,2.06,US,1612152782
Hobyo,5.3505,48.5268,24.3,71,32,9.7,SO,1612153021
Hilo,19.7297,-155.09,24.0,64,20,2.06,US,1612152915
Whakatane,-37.9585,176.9854,22.78,45,0,1.79,NZ,1612153022
Cape Town,-33.9258,18.4232,18.89,63,0,9.77,ZA,1612152901
Puerto Ayora,-0.7393,-90.3518,25.56,91,36,1.34,EC,1612152916
Ushuaia,-54.8,-68.3,11.0,76,90,8.23,AR,1612153023
Bredasdorp,-34.5322,20.0403,15.56,78,95,4.9,ZA,1612153023
Bambous Virieux,-20.3428,57.7575,28.0,74,75,6.17,MU,1612153023
Chui,-33.6971,-53.4616,21.03,91,100,5.48,UY,1612152405
Hobart,-42.8794,147.3294,23.33,82,75,9.26,AU,1612153024
New Norfolk,-42.7826,147.0587,23.33,46,100,0.89,AU,1612153024
Whitianga,-36.8333,175.7,20.53,59,10,2.74,NZ,1612153024
Salima,-13.7804,34.4587,22.27,90,100,1.44,MW,1612153025
Ternate,0.8,127.4,28.96,62,100,2.39,ID,1612152760
Vaini,-21.2,-175.2,26.0,94,90,3.6,TO,1612152950
Mahébourg,-20.4081,57.7,28.0,74,75,6.17,MU,1612152974
Maebaru-chūō,33.55,130.2,14.0,67,75,10.29,JP,1612152761
Salalah,17.0151,54.0924,21.0,52,20,1.54,OM,1612152956
Egvekinot,66.3167,-179.1667,-23.57,89,100,9.29,RU,1612152920
Harper,4.375,-7.7169,25.59,89,6,3.3,LR,1612153024
Jamestown,42.097,-79.2353,-3.33,80,90,4.12,US,1612152960
Santa Cecília,-26.9608,-50.4269,16.46,100,100,0.93,BR,1612153027
Alekseyevskoye,55.3071,50.1135,-3.0,74,90,5.0,RU,1612153027
Atuona,-9.8,-139.0333,26.03,76,12,8.53,PF,1612152698
Province of Mantua,45.1667,10.7833,3.0,93,75,0.51,IT,1612153028
Mackay,-21.15,149.2,29.44,65,6,7.72,AU,1612152528
Amapá,1.0,-52.0,21.64,99,37,0.98,BR,1612152942
Tuktoyaktuk,69.4541,-133.0374,-33.0,75,20,1.03,CA,1612152709
Bushehr,28.9684,50.8385,13.0,67,0,5.14,IR,1612153029
Ambon City,-3.6954,128.1814,32.0,62,40,5.14,ID,1612153029
Bandarbeyla,9.4942,50.8122,22.76,68,30,8.77,SO,1612152950
Magistral'nyy,56.1725,107.4458,-34.98,79,98,1.15,RU,1612153030
Rikitea,-23.1203,-134.9692,26.46,64,19,3.0,PF,1612153030
Ţahţā,26.7693,31.5021,8.0,61,0,2.06,EG,1612152924
Chapais,49.7834,-74.8492,-24.0,84,1,1.32,CA,1612152765
Ribeira Grande,38.5167,-28.7,17.41,84,99,14.81,PT,1612152946
Zhigansk,66.7697,123.3711,-41.17,79,51,2.36,RU,1612152924
Amalāpuram,16.5833,82.0167,26.0,78,40,4.12,IN,1612153032
East London,-33.0153,27.9116,19.0,94,90,6.69,ZA,1612152866
Bethel,41.3712,-73.414,-6.67,58,90,3.09,US,1612152978
Farmers Branch,32.9265,-96.8961,9.0,61,1,3.09,US,1612152959
Igarka,67.4667,86.5833,-25.54,88,100,6.81,RU,1612152767
Tres Arroyos,-38.3739,-60.2798,9.57,84,88,3.27,AR,1612153033
Sabang,5.8933,95.3214,27.42,80,55,8.55,ID,1612152779
Waddān,29.1614,16.139,12.87,50,77,4.2,LY,1612152927
Barrow,71.2906,-156.7887,-26.0,76,1,5.14,US,1612152700
Kribi,2.95,9.9167,26.08,85,86,3.14,CM,1612153034
Saint-Philippe,-21.3585,55.7679,29.0,65,0,9.26,RE,1612152927
San Felipe,10.3399,-68.7425,22.0,93,95,1.77,VE,1612153035
Whitehorse,60.7161,-135.0538,-17.78,84,90,2.06,CA,1612152909
Yangi Marg`ilon,40.4272,71.7189,4.0,52,40,0.98,UZ,1612152654
Camaná,-16.6228,-72.7111,21.03,75,92,3.44,PE,1612153035
Xining,36.6167,101.7667,-4.98,56,0,1.72,CN,1612153036
Klyuchi,52.2667,79.1667,-14.18,94,100,2.23,RU,1612152943
Yudong,29.385,106.5194,10.0,93,90,2.0,CN,1612153036
Saskylakh,71.9167,114.0833,-35.05,83,62,3.35,RU,1612153094
Dikson,73.5069,80.5464,-31.64,80,97,4.04,RU,1612152973
Cabo San Lucas,22.8909,-109.9124,18.89,88,20,0.64,MX,1612152790
Itarema,-2.9248,-39.9167,26.56,81,75,6.27,BR,1612153037
Muros,42.7762,-9.0603,14.44,87,81,7.15,ES,1612153037
Yellowknife,62.456,-114.3525,-22.0,84,75,2.57,CA,1612152442
Hasaki,35.7333,140.8333,10.0,66,75,1.03,JP,1612152935
Havelock,34.8791,-76.9013,12.78,100,90,5.66,US,1612152978
Bay Roberts,47.5999,-53.2648,-1.67,93,90,8.23,CA,1612153039
Nichinan,31.6,131.3667,19.0,45,75,6.17,JP,1612152979
Faya,18.3851,42.4509,11.0,57,0,1.54,SA,1612152907
Fortuna,40.5982,-124.1573,12.78,94,90,9.77,US,1612153039
Sangar,63.9242,127.4739,-42.22,77,82,1.49,RU,1612152988
Udachny,66.4167,112.4,-39.18,79,100,4.57,RU,1612153040
Jämsä,61.8642,25.19,-11.0,92,90,1.03,FI,1612152774
Maun,-19.9833,23.4167,20.0,100,90,3.6,BW,1612153040
Sakakah,29.9697,40.2064,7.0,53,0,1.54,SA,1612152775
Sambava,-14.2667,50.1667,26.21,75,97,3.09,MG,1612152775
Hithadhoo,-0.6,73.0833,27.84,78,41,4.45,MV,1612152902
Charlestown,-32.95,151.6667,27.22,70,42,0.89,AU,1612153042
Boende,-0.2167,20.8667,21.55,91,1,1.02,CD,1612152776
Tasiilaq,65.6145,-37.6368,-10.0,62,90,1.03,GL,1612153042
Mahon,39.8885,4.2658,12.0,87,0,3.09,ES,1612153042
Katobu,-4.9408,122.5276,29.47,65,100,2.65,ID,1612152962
Murray Bridge,-35.1167,139.2667,23.33,64,47,8.81,AU,1612152746
Severo-Kuril'sk,50.6789,156.125,-5.76,93,99,18.89,RU,1612152512
Petrovsk,52.3064,45.3917,-8.54,97,100,3.61,RU,1612152777
Bariloche,-41.1456,-71.3082,13.33,71,75,3.09,AR,1612153043
Rawson,-43.3002,-65.1023,20.74,48,15,9.81,AR,1612152819
Albany,42.6001,-73.9662,-9.44,56,100,1.01,US,1612152825
Butaritari,3.0707,172.7902,27.36,82,53,6.27,KI,1612153044
Coquimbo,-29.9533,-71.3436,18.0,88,75,1.54,CL,1612152796
Noumea,-22.2763,166.4572,29.0,58,0,9.77,NC,1612152617
Port Elizabeth,-33.918,25.5701,19.0,72,40,6.69,ZA,1612153032
Longyearbyen,78.2186,15.6401,-14.0,33,75,5.66,SJ,1612152921
Kupang,-10.1667,123.5833,26.0,100,75,7.2,ID,1612153045
Taikang,46.8333,124.4167,-22.86,87,100,7.93,CN,1612152779
Port Blair,11.6667,92.75,28.18,69,0,7.88,IN,1612152904
Taldan,53.6667,124.8,-31.95,77,0,3.89,RU,1612152780
Gushikawa,26.3544,127.8686,23.0,56,20,6.17,JP,1612153046
Capreol,46.706,-80.9225,-16.11,71,40,5.66,CA,1612153047
Qaanaaq,77.484,-69.3632,-20.26,88,100,0.83,GL,1612152928
Baruun-Urt,46.6806,113.2792,-26.62,81,9,4.18,MN,1612153047
Kavieng,-2.5744,150.7967,29.12,78,100,6.77,PG,1612152999
Mount Isa,-20.7333,139.5,38.0,23,40,4.12,AU,1612153047
Lucapa,-8.4192,20.7447,19.28,96,100,1.65,AO,1612153048
Senno,59.5336,33.9167,-6.03,97,100,4.29,RU,1612153048
Kahului,20.8947,-156.47,23.0,68,40,6.69,US,1612152784
Teya,60.3778,92.6267,-23.54,82,100,0.59,RU,1612153049
Nador,35.174,-2.9287,17.0,72,0,9.26,MA,1612153049
Tabuk,17.4189,121.4443,24.75,69,38,1.42,PH,1612152783
Samarai,-10.6167,150.6667,29.39,72,70,4.47,PG,1612153049
Petropavlovsk-Kamchatskiy,53.0452,158.6483,-3.0,43,94,7.0,RU,1612152668
Garden City,42.3256,-83.331,-1.67,74,90,5.14,US,1612152738
São Filipe,14.8961,-24.4956,21.95,75,0,3.1,CV,1612152978
Vila Velha,-20.3297,-40.2925,25.0,83,20,3.09,BR,1612152986
Marsaxlokk,35.8419,14.5431,13.89,82,20,8.23,MT,1612153051
Okhotsk,59.3833,143.3,-22.66,79,0,7.7,RU,1612152628
Puerto Suárez,-18.95,-57.8,24.38,82,5,1.32,BO,1612153051
Batagay-Alyta,67.8006,130.4114,-36.87,81,100,0.58,RU,1612152731
Hong Kong,22.2855,114.1577,24.44,75,56,3.72,HK,1612152827
Boyolangu,-8.1181,111.8935,30.08,66,95,2.33,ID,1612153052
Nouadhibou,20.931,-17.0347,18.0,77,0,7.72,MR,1612153052
Caravelas,-17.7125,-39.2481,23.66,86,3,2.24,BR,1612153109
Xinmin,41.9908,122.8253,-10.0,48,20,5.0,CN,1612153053
Asău,46.4333,26.4,-1.67,72,100,1.21,RO,1612153053
Beloha,-25.1667,45.05,27.49,65,0,2.45,MG,1612153053
Ust-Kuyga,70.0167,135.6,-36.82,81,97,2.27,RU,1612153053
Camacha,33.0833,-16.3333,16.0,88,20,2.57,PT,1612152752
La Ronge,55.1001,-105.2842,-8.0,86,30,2.06,CA,1612152900
Kenai,60.5544,-151.2583,-15.56,78,1,1.54,US,1612153054
Rio Grande,-32.035,-52.0986,22.78,93,93,0.45,BR,1612153018
Pangnirtung,66.1451,-65.7125,-21.39,86,100,3.36,CA,1612152407
Sicamous,50.8331,-118.9856,1.11,100,100,0.51,CA,1612152908
Rocha,-34.4833,-54.3333,19.94,83,100,3.93,UY,1612153112
Bosobolo,4.1833,19.9,20.46,76,47,1.11,CD,1612153056
Russell,32.3502,-85.1999,13.0,88,90,4.12,US,1612153021
Cockburn Town,21.4612,-71.1419,24.3,77,80,9.95,TC,1612153056
Jennings,38.7192,-90.2604,1.11,80,90,5.66,US,1612153015
Nanortalik,60.1432,-45.2371,0.27,90,100,2.83,GL,1612152518
Warrnambool,-38.3833,142.4833,18.89,74,80,6.13,AU,1612153057
Clyde River,70.4692,-68.5914,-20.0,84,90,11.32,CA,1612153057
Mehamn,71.0357,27.8492,-7.0,79,0,3.6,NO,1612153043
Nemuro,43.3236,145.575,-3.0,59,20,4.63,JP,1612153091
Castro,-24.7911,-50.0119,17.7,95,83,0.98,BR,1612152538
Moose Factory,51.2585,-80.6094,-16.0,92,90,2.06,CA,1612153058
Cayenne,4.9333,-52.3333,26.0,83,75,3.6,GF,1612152793
Peniche,39.3558,-9.3811,13.89,85,86,3.58,PT,1612153058
Touros,-5.1989,-35.4608,26.0,83,40,2.57,BR,1612153059
Tiksi,71.6872,128.8694,-32.93,86,100,2.95,RU,1612152526
Napier City,-39.4833,176.9167,21.11,59,0,1.34,NZ,1612153059
Khatanga,71.9667,102.5,-38.19,82,0,3.94,RU,1612153060
Saint-Augustin,51.226,-58.6502,-11.43,90,0,5.14,CA,1612152967
Acaraú,-2.8856,-40.12,26.62,84,99,5.4,BR,1612153060
Port Pirie,-33.1833,138.0167,22.0,60,100,12.86,AU,1612153060
Edgewater,28.9889,-80.9023,21.0,68,75,5.14,US,1612153061
Edd,13.9297,41.6925,23.07,61,0,5.66,ER,1612153061
Carnarvon,-24.8667,113.6333,41.0,14,26,6.69,AU,1612152996
Ostrovnoy,68.0531,39.5131,-11.36,94,87,1.65,RU,1612152874
Kamra,33.7473,73.5111,12.22,51,22,0.45,PK,1612153061
Zbarazh,49.6636,25.7762,-6.07,98,100,3.71,UA,1612153062
George Town,5.4112,100.3354,30.0,62,20,4.12,MY,1612152941
Avarua,-21.2078,-159.775,29.0,70,20,2.06,CK,1612152909
Kaitangata,-46.2817,169.8464,19.44,61,7,4.92,NZ,1612153062
Eydhafushi,5.1033,73.0708,27.8,76,82,6.01,MV,1612153063
Nikolskoye,59.7035,30.7861,-4.0,86,75,5.0,RU,1612152672
Lebu,-37.6167,-73.65,13.73,87,19,5.78,CL,1612152693
Ahipara,-35.1667,173.1667,20.47,63,9,3.5,NZ,1612152755
Haikou,20.0458,110.3417,24.0,69,75,4.0,CN,1612153063
Sebrovo,50.0981,43.2976,-0.56,88,97,0.88,RU,1612153064
Nelson Bay,-32.7167,152.15,30.0,54,40,6.69,AU,1612153061
Tautira,-17.7333,-149.15,29.0,61,75,2.57,PF,1612153052
Olafsvik,64.8945,-23.7142,0.84,89,100,6.66,IS,1612152656
Bengkulu,-3.8004,102.2655,30.05,60,83,2.74,ID,1612152945
Leningradskiy,69.3833,178.4167,-28.33,86,100,6.06,RU,1612152584
Mar del Plata,-38.0023,-57.5575,17.78,72,75,4.63,AR,1612153065
Nevers,46.9896,3.159,9.0,100,90,6.17,FR,1612153065
Inhambane,-23.865,35.3833,26.39,86,3,4.04,MZ,1612152766
Soure,-0.7167,-48.5233,26.3,86,72,5.25,BR,1612153066
El Retorno,2.3302,-72.6276,23.19,86,100,1.42,CO,1612153066
Port Hedland,-20.3167,118.5667,26.0,100,90,8.75,AU,1612153066
Skjervøy,70.0311,20.9714,-0.92,91,100,2.61,NO,1612153067
Atar,20.5169,-13.0499,19.36,26,100,3.28,MR,1612153018
Mount Gambier,-37.8333,140.7667,19.0,55,90,8.75,AU,1612153021
La Cruz,23.9167,-106.9,18.63,67,30,3.85,MX,1612153067
Duku,11.2361,4.9073,21.57,21,48,2.67,NG,1612153067
Cherskiy,68.75,161.3,-23.4,83,98,3.43,RU,1612152957
Tual,-5.6667,132.75,28.26,72,100,4.9,ID,1612152878
Pevek,69.7008,170.3133,-29.61,86,37,1.84,RU,1612152731
Iquique,-20.2208,-70.1431,20.0,73,0,4.12,CL,1612152643
Kameno,42.5667,27.3,11.0,76,20,3.6,BG,1612153069
Honiara,-9.4333,159.95,27.93,79,81,7.05,SB,1612153069
Thompson,55.7435,-97.8558,-16.0,92,75,0.84,CA,1612152997
Ilulissat,69.2167,-51.1,-13.0,56,75,3.6,GL,1612152612
Río Gallegos,-51.6226,-69.2181,14.0,51,0,3.09,AR,1612152815
Paita,-5.0892,-81.1144,23.6,78,91,5.96,PE,1612153126
Bilma,18.6853,12.9164,13.64,31,24,1.92,NE,1612153126
Eureka,40.8021,-124.1637,12.78,83,100,1.79,US,1612152607
Nuuk,64.1835,-51.7216,-8.0,79,90,3.09,GL,1612153127
San Policarpo,12.1791,125.5072,26.77,83,97,6.71,PH,1612153019
Banda Aceh,5.5577,95.3222,28.91,67,49,4.35,ID,1612153127
Samaná,19.2056,-69.3369,23.08,85,82,4.13,DO,1612153127
Soe,-9.8607,124.284,26.54,65,95,4.68,ID,1612152869
Kot Samaba,28.5522,70.4684,17.24,27,0,6.52,PK,1612153128
Bolu Province,40.6667,31.5833,3.19,77,100,3.07,TR,1612153128
Te Anau,-45.4167,167.7167,22.95,49,10,1.21,NZ,1612152932
Bathsheba,13.2167,-59.5167,26.0,65,40,9.77,BB,1612153006
Namatanai,-3.6667,152.4333,29.14,76,95,4.42,PG,1612153129
Sierpc,52.8568,19.6691,-6.45,95,24,2.36,PL,1612153129
Broken Hill,-31.95,141.4333,31.0,15,75,8.23,AU,1612152970
Quatre Cocos,-20.2078,57.7625,28.0,74,75,6.17,MU,1612153130
Bang Saphan,11.2126,99.5117,30.0,70,20,3.09,TH,1612153130
Iqaluit,63.7506,-68.5145,-15.0,72,75,6.17,CA,1612153130
Toguchin,55.2353,84.3858,-18.58,83,97,1.57,RU,1612153131
Lüderitz,-26.6481,15.1594,18.48,79,0,7.86,NA,1612153045
Talnakh,69.4865,88.3972,-26.62,79,100,3.96,RU,1612152463
Darnah,32.767,22.6367,16.28,42,57,12.21,LY,1612153131
Lavrentiya,65.5833,-171.0,-21.57,86,100,8.18,RU,1612152890
Longview,32.5007,-94.7405,7.78,61,1,4.12,US,1612153078
Yugorsk,61.3133,63.3319,-11.93,96,100,4.92,RU,1612153132
Boca do Acre,-8.7522,-67.3978,22.72,97,72,0.46,BR,1612153132
Jinxiang,27.4327,120.6062,19.02,71,86,1.02,CN,1612153093
Tondano,1.3038,124.9112,28.0,78,40,2.57,ID,1612153133
Petropavl,54.8753,69.1628,-22.0,84,0,2.55,KZ,1612153133
Aykhal,66.0,111.5,-40.37,78,100,4.24,RU,1612152855
Upernavik,72.7868,-56.1549,-15.65,93,100,3.1,GL,1612152913
Zaysan,47.4667,84.8667,-14.09,89,98,1.35,KZ,1612153134
Ust'-Ilimsk,58.0006,102.6619,-34.45,80,38,1.1,RU,1612153134
Esperance,-33.8667,121.9,26.0,38,40,5.66,AU,1612152940
Decatur,39.8403,-88.9548,0.0,93,90,8.23,US,1612153135
Pisco,-13.7,-76.2167,21.67,73,0,4.12,PE,1612152954
Øksfjord,70.2396,22.3479,-3.0,86,20,0.65,NO,1612153135
Saint Paul Harbor,57.79,-152.4072,-1.0,64,1,1.54,US,1612153113
Am Timan,11.0297,20.2827,20.66,24,0,2.51,TD,1612153136
Lata,40.1629,-8.3327,13.89,94,89,1.93,PT,1612153100
Iracoubo,5.4802,-53.2011,25.46,80,99,6.63,GF,1612153136
Sturgeon Falls,46.3646,-79.9326,-15.0,72,1,4.12,CA,1612153136
Santa Teresa del Tuy,10.2341,-66.6631,22.0,94,75,0.64,VE,1612153137
Motygino,58.1831,94.7592,-31.52,83,87,1.22,RU,1612153137
Khasan,42.4308,130.6434,-0.76,94,66,3.95,RU,1612153040
Makakilo City,21.3469,-158.0858,25.0,53,1,2.57,US,1612153137
Paralímni,35.0375,33.9833,13.33,93,20,2.06,CY,1612153138
Emerald,-23.5333,148.1667,33.89,35,40,4.63,AU,1612152638
Calama,-22.4667,-68.9333,12.0,30,0,5.14,CL,1612152847
Nantucket,41.2835,-70.0995,-1.11,74,75,2.06,US,1612152773
Kununurra,-15.7667,128.7333,30.0,74,99,3.6,AU,1612153044
Harwich,51.9419,1.2844,3.89,88,100,3.13,GB,1612153139
Roebourne,-20.7833,117.1333,27.32,70,100,8.12,AU,1612152586
Coihueco,-36.6167,-71.8333,14.0,100,87,1.03,CL,1612153139
Jiwani,25.05,61.7417,21.16,74,4,1.3,PK,1612153140
Scarborough,54.2797,-0.4044,2.78,75,79,1.34,GB,1612153140
Kavaratti,10.5669,72.642,27.52,72,2,4.51,IN,1612152712
Seoul,37.5683,126.9778,10.0,66,75,4.63,KR,1612152868
Valparaíso,-33.0393,-71.6273,15.47,85,11,4.52,CL,1612153141
Talara,-4.5772,-81.2719,23.61,82,96,7.08,PE,1612153004
Yerbogachën,61.2767,108.0108,-34.75,81,70,2.63,RU,1612153142
Sibolga,1.7427,98.7792,31.58,52,100,0.49,ID,1612153142
Baykit,61.67,96.37,-29.99,79,96,0.62,RU,1612153142
Corumbá,-19.0092,-57.6533,23.69,86,4,1.1,BR,1612153142
Aklavik,68.2191,-135.0107,-29.0,76,100,2.57,CA,1612152454
Manakara,-22.1333,48.0167,26.01,85,40,1.22,MG,1612153143
Saint George,37.1041,-113.5841,9.44,46,1,1.54,US,1612153106
Carutapera,-1.195,-46.02,25.92,85,63,3.2,BR,1612152953
Norman Wells,65.282,-126.8329,-31.0,69,75,2.57,CA,1612153099
Nago,26.5881,127.9761,23.0,56,20,6.17,JP,1612153033
Kibala,9.1104,18.3463,19.0,59,0,1.48,TD,1612153144
Grand Gaube,-20.0064,57.6608,27.78,79,16,2.68,MU,1612153144
Parfino,57.9731,31.6481,-4.87,96,100,4.64,RU,1612153145
Forsytheganj,52.6333,29.7333,-9.94,97,30,2.55,BY,1612153145
Lorengau,-2.0226,147.2712,28.53,77,100,5.0,PG,1612152938
Ancud,-41.8697,-73.8203,12.22,87,0,1.54,CL,1612153117
Chu,43.5983,73.7614,2.0,84,100,2.09,KZ,1612153146
Nome,64.5011,-165.4064,-14.0,56,90,6.17,US,1612153146
Pandan,14.0453,124.1694,25.39,83,69,6.21,PH,1612153147
Fuengirola,36.54,-4.6247,17.22,77,75,5.66,ES,1612152857
Kieta,-6.2167,155.6333,29.63,74,56,5.93,PG,1612153147
Kirakira,-10.4544,161.9205,28.8,75,61,11.08,SB,1612153148
Kembé,4.6228,21.8865,22.23,35,92,0.35,CF,1612153148
Cerrito,6.8432,-72.694,10.7,76,100,3.2,CO,1612153148
Buala,-8.145,159.5921,28.83,80,100,7.98,SB,1612153047
São Domingos,-13.3983,-46.3183,22.53,63,42,0.22,BR,1612153149
Qiyang,26.5911,111.8474,15.54,60,74,1.41,CN,1612153149
Krasnogorsk,55.8225,37.3181,-3.0,80,75,8.0,RU,1612153149
Ust-Nera,64.5667,143.2,-33.84,75,97,2.62,RU,1612153149
Husavik,66.0449,-17.3389,-20.0,84,0,4.12,IS,1612152976
Escanaba,45.7453,-87.0646,-6.0,68,1,1.54,US,1612153075
Christchurch,-43.5333,172.6333,21.0,64,100,5.66,NZ,1612152907
Maceió,-9.6658,-35.7353,23.0,94,40,1.54,BR,1612153151
Toora-Khem,52.4675,96.11,-25.1,83,78,0.89,RU,1612153151
Inuvik,68.3499,-133.7218,-29.0,76,100,3.09,CA,1612153151
Necochea,-38.5473,-58.7368,10.0,81,100,4.09,AR,1612152419
Kisangani,0.5167,25.2,20.84,82,100,0.67,CD,1612153152
Onguday,50.75,86.15,-8.95,84,100,1.36,RU,1612153152
Nishihara,26.1842,127.7558,23.0,46,75,5.14,JP,1612152755
Marawi,7.9986,124.2928,24.36,80,100,2.69,PH,1612152685
Cappelle-la-Grande,50.9998,2.3585,3.33,98,100,0.45,FR,1612153153
Pringsewu,-5.3582,104.9744,29.71,69,12,2.05,ID,1612153153
Arlit,18.7369,7.3853,15.4,26,0,2.87,NE,1612153153
Dongsheng,39.8161,109.9776,-11.23,67,0,6.48,CN,1612153153
Mae Ramat,16.984,98.5166,28.0,61,20,1.03,TH,1612153154
Meulaboh,4.1363,96.1285,29.77,63,82,0.43,ID,1612152795
Vostok,46.4856,135.8833,-9.27,97,100,0.4,RU,1612152907
Sovetskiy,61.3614,63.5842,-11.97,96,100,4.95,RU,1612152748
Shingū,33.7333,135.9833,15.0,58,75,6.69,JP,1612153053
Gaziantep,37.0594,37.3825,5.0,93,75,2.57,TR,1612152870
Kleive,62.7954,7.6359,-2.0,86,75,5.14,NO,1612153155
Kabelvåg,68.2114,14.4817,-6.11,93,0,1.54,NO,1612153155
Dingle,10.9995,122.6711,28.26,73,42,6.44,PH,1612153155
Rzhev,56.2624,34.3282,-6.64,96,100,4.08,RU,1612153156
Codrington,-38.2667,141.9667,17.59,72,80,6.18,AU,1612153095
Hamilton,39.1834,-84.5333,0.56,93,90,6.17,US,1612152871
Takoradze,4.8845,-1.7554,25.63,88,12,3.43,GH,1612153156
Departamento de Maldonado,-34.6667,-54.9167,21.11,78,90,5.14,UY,1612152641
Powell River,49.8496,-124.5361,7.0,87,90,3.6,CA,1612152909
Taoudenni,22.6783,-3.9836,18.5,25,8,3.71,ML,1612152957
Srednekolymsk,67.45,153.6833,-29.58,86,100,3.77,RU,1612153157
Pa Sang,18.5262,98.9394,27.0,54,20,1.54,TH,1612153157
Mandan,46.8267,-100.8896,-6.0,100,90,2.06,US,1612153158
Mezen',65.8522,44.24,-11.56,96,96,2.29,RU,1612153158
Millinocket,45.6573,-68.7098,-17.0,78,1,0.57,US,1612153158
Singkang,2.1006,102.7994,29.0,74,20,4.12,MY,1612153158
Ponta do Sol,32.6667,-17.1,13.89,50,1,0.89,PT,1612153159
Dickinson,29.4608,-95.0513,13.33,47,1,4.63,US,1612153159
Poum,-20.2333,164.0167,27.21,72,100,7.36,NC,1612153043
Kautokeino,69.0125,23.0412,-7.95,96,100,4.62,NO,1612153160
Zhicheng,30.2956,111.5047,15.32,54,48,0.4,CN,1612153160
Beyneu,45.3167,55.2,1.91,90,0,2.34,KZ,1612153160
Prince Rupert,54.3161,-130.3201,5.0,81,90,2.68,CA,1612152909
Padang,-0.9492,100.3543,28.85,63,90,1.13,ID,1612153161
Ambilobe,-13.2,49.05,23.99,87,88,1.2,MG,1612152773
Souillac,-20.5167,57.5167,28.0,74,75,6.17,MU,1612152971
Road Town,18.4167,-64.6167,25.56,89,2,1.79,VG,1612152981
Salym,60.0625,71.4789,-16.02,94,95,2.2,RU,1612153162
Pimenta Bueno,-11.6725,-61.1936,22.36,94,54,0.89,BR,1612153032
Mokhsogollokh,61.4681,128.9203,-37.91,80,100,2.98,RU,1612153162
Jinka,5.65,36.65,16.82,38,48,1.11,ET,1612153162
Buritizeiro,-17.3511,-44.9622,22.83,73,99,1.23,BR,1612153163
Creel,27.75,-107.6333,5.99,62,100,2.59,MX,1612153163
Yarmouth,41.7057,-70.2286,-2.78,74,90,2.57,US,1612153067
Krasnoarmeysk,51.0239,45.6969,-5.96,97,100,3.04,RU,1612153164
Swift Current,50.2834,-107.8014,-3.0,68,20,7.2,CA,1612152909
Santa Cruz de la Sierra,-17.8,-63.1667,24.0,94,75,5.66,BO,1612152964
Kortkeros,61.8106,51.5806,-1.0,100,90,5.0,RU,1612153164
Arman',59.7,150.1667,-25.09,78,50,6.1,RU,1612153165
Krasnosel'kup,65.7,82.4667,-26.68,88,98,4.7,RU,1612153165
Morbegno,46.1383,9.57,4.44,88,100,0.57,IT,1612153165
Cidreira,-30.1811,-50.2056,23.36,92,100,2.79,BR,1612152497
Comodoro Rivadavia,-45.8667,-67.5,20.0,45,0,2.57,AR,1612153166
Sola,-13.8833,167.55,31.0,70,75,3.24,VU,1612152673
Abu Samrah,35.3029,37.1841,6.23,96,22,2.92,SY,1612152947
Shetpe,44.1667,52.1167,2.4,96,59,1.17,KZ,1612153166
Nānākuli,21.3906,-158.1547,25.0,53,1,2.57,US,1612153167
Bassano,50.7834,-112.4685,3.89,93,98,2.57,CA,1612153167
Berlin,52.5244,13.4105,-5.0,92,0,2.57,DE,1612153035
Lompoc,34.6391,-120.4579,12.0,71,1,0.85,US,1612152857
Lobatse,-25.2167,25.6667,19.0,94,0,1.54,BW,1612153168
Narsaq,60.9167,-46.05,4.0,35,75,3.6,GL,1612152726
Alofi,-19.0595,-169.9187,26.0,89,90,3.6,NU,1612152911
Yartsevo,55.0667,32.6964,-7.93,97,99,3.95,RU,1612153087
Valdivia,-39.8142,-73.2459,13.0,100,0,1.54,CL,1612153044
Quelimane,-17.8786,36.8883,26.0,94,75,2.06,MZ,1612153169
Ujjain,23.1833,75.7667,19.0,26,0,2.06,IN,1612153169
Pacific Grove,36.6177,-121.9166,12.22,82,1,2.74,US,1612153169
Nieuw Amsterdam,5.8833,-55.0833,26.11,88,97,2.24,SR,1612153170
Eyrarbakki,63.863,-21.1481,-4.0,68,0,6.17,IS,1612153170
Taltal,-25.4,-70.4833,19.16,71,0,2.11,CL,1612153112
Jinchang,38.4953,102.1739,-2.46,63,0,1.39,CN,1612153074
City of San Pedro,14.35,121.0167,30.0,61,75,2.57,PH,1612153171
Esil,51.9556,66.4042,-13.66,88,0,0.99,KZ,1612152803
Tashara,55.5195,83.5094,-20.08,85,87,1.83,RU,1612153171
Baharly,38.4362,57.4316,8.85,55,97,0.77,TM,1612153172
Margate,51.3813,1.3862,5.56,91,100,0.89,GB,1612153062
Jacmel,18.2342,-72.5347,25.0,69,75,2.57,HT,1612153172
Tashla,51.7716,52.7427,-0.82,98,100,4.45,RU,1612153172
Provideniya,64.3833,-173.3,-18.47,90,100,11.37,RU,1612152578
Kajaani,64.2273,27.7285,-11.0,92,100,1.54,FI,1612153173
Praia,14.9215,-23.5087,22.0,60,40,7.2,CV,1612152910
San Jorge,-31.8962,-61.8598,17.78,97,29,0.45,AR,1612153173
Fairbanks,64.8378,-147.7164,-21.0,77,90,0.99,US,1612152901
Tuy Hoa,13.0833,109.3,24.05,74,85,5.6,VN,1612153174
Anáhuac,27.2333,-100.15,17.29,39,0,4.22,MX,1612153078
San Cristobal,7.7669,-72.225,19.18,72,98,1.13,VE,1612153174
Shelburne,44.0787,-80.2041,-11.0,72,1,1.54,CA,1612152908
Sahuaripa,29.05,-109.2333,17.16,34,78,1.21,MX,1612153175
Mweka,-4.85,21.5667,19.9,98,91,0.22,CD,1612152967
Jamūī,24.9167,86.2167,17.19,38,0,2.59,IN,1612153175
Fare,-16.7,-151.0167,27.66,72,35,4.28,PF,1612152769
Sovetskaya Gavan',48.9723,140.2878,-18.87,91,100,2.97,RU,1612153176
Jijiga,9.35,42.8,12.31,39,0,3.06,ET,1612153176
Boguchany,58.3814,97.4531,-33.16,81,74,0.47,RU,1612153176
Isangel,-19.55,169.2667,30.0,74,75,2.57,VU,1612152996
Leme,-22.1856,-47.3903,23.33,68,100,0.35,BR,1612153177
Gladstone,-23.85,151.25,30.0,45,75,7.72,AU,1612152940
Ratnagiri,16.9833,73.3,28.43,38,12,3.32,IN,1612153177
Poway,32.9628,-117.0359,14.44,38,1,2.06,US,1612153178
Beira,-19.8436,34.8389,25.0,100,20,2.06,MZ,1612153178
Laguna,38.421,-121.4238,13.33,71,20,1.52,US,1612152946
Mandalgovi,45.7625,106.2708,-20.01,77,0,6.19,MN,1612152794
Chokurdakh,70.6333,147.9167,-27.94,87,100,5.03,RU,1612153005
Anchorage,61.2181,-149.9003,-15.0,72,1,1.02,US,1612153085
Abapó,-18.8333,-63.4667,20.36,92,54,0.62,BO,1612153180
Jianning,27.8333,113.15,10.0,93,75,3.0,CN,1612153146
Chernyshevskiy,63.0128,112.4714,-35.25,85,91,1.21,RU,1612153180
Pangody,65.85,74.4859,-22.88,90,81,3.65,RU,1612153180
Quijingue,-10.7525,-39.2092,20.68,95,57,2.78,BR,1612153180
Lagos,6.5833,3.75,25.8,88,30,1.96,NG,1612152688
La Rioja,42.25,-2.5,11.0,66,0,9.77,ES,1612153062
Port Macquarie,-31.4333,152.9167,30.0,50,4,0.89,AU,1612153048
Nadvoitsy,63.8667,34.3167,-13.49,96,98,1.49,RU,1612153181
Walvis Bay,-22.9575,14.5053,18.89,77,99,4.12,NA,1612153033
Sémbé,1.6481,14.5806,21.31,92,96,0.94,CG,1612153182
Thanh Hoa,19.8,105.7667,21.64,75,99,0.88,VN,1612153182
Livramento,-3.0254,-60.1803,26.0,89,0,2.57,BR,1612153182
Saldanha,-33.0117,17.9442,17.35,75,34,9.58,ZA,1612152487
Igrim,63.1906,64.4162,-13.63,95,100,4.26,RU,1612153183
Rawlins,41.7911,-107.2387,-6.0,63,1,3.09,US,1612153183
Juegang,32.3174,121.1855,11.11,91,100,3.45,CN,1612153184
St. George's,12.0564,-61.7485,27.0,74,40,8.75,GD,1612152871
Kiunga,-6.1219,141.2906,24.22,97,100,0.67,PG,1612153184
Cape Canaveral,28.4058,-80.6048,20.0,83,1,6.69,US,1612153184
Altamira,-3.2033,-52.2064,23.27,96,88,1.0,BR,1612153184
Tanout,14.9709,8.8879,17.0,25,52,3.95,NE,1612153185
Biak,-0.9131,122.8766,28.41,68,100,0.97,ID,1612152646
Maragogi,-9.0122,-35.2225,25.12,81,100,3.07,BR,1612153019
Santa Isabel Rio Negro,-0.4139,-65.0192,23.3,96,100,0.88,BR,1612153047
Kloulklubed,7.0419,134.2556,30.0,70,75,4.63,PW,1612152599
Chunhuhub,19.55,-88.6833,20.66,99,6,1.23,MX,1612153186
Kruisfontein,-34.0033,24.7314,16.67,94,97,0.45,ZA,1612153005
Hirara,24.8,125.2833,24.0,60,20,6.17,JP,1612153186
Rafai,4.95,23.9167,18.04,42,79,0.43,CF,1612153187
Baní,18.2833,-70.3333,22.78,85,46,1.79,DO,1612153187
Bougouni,11.417,-7.479,19.3,22,2,2.39,ML,1612153187
Santa Isabel,-23.3156,-46.2214,21.0,88,0,4.12,BR,1612153187
Kantunilkín,21.0917,-87.45,23.0,94,40,0.99,MX,1612153188
Phan Thiet,10.9333,108.1,28.81,54,100,3.26,VN,1612153188
Impfondo,1.6381,18.0667,21.97,90,100,1.57,CG,1612153188
Pochutla,15.7432,-96.4661,23.89,82,0,0.45,MX,1612153188
Pombas,17.1503,-25.0201,21.0,78,40,9.77,CV,1612153189
Burnie,-41.0667,145.9167,18.45,82,100,3.58,AU,1612153027
Airai,-8.9266,125.4092,21.73,80,90,2.96,TL,1612152921
Chardara,41.2547,67.9692,9.77,81,99,4.21,KZ,1612153189
San Quintín,30.4833,-115.95,15.15,66,98,3.55,MX,1612153189
Manta,-0.95,-80.7333,25.0,88,75,1.03,EC,1612153083
Morant Bay,17.8815,-76.4093,27.0,69,20,7.2,JM,1612153190
Houma,29.5958,-90.7195,11.11,66,1,7.72,US,1612153190
Dicabisagan,17.0818,122.4157,23.74,75,90,2.73,PH,1612153191
Half Moon Bay,37.4636,-122.4286,13.0,67,40,2.57,US,1612153048
Mandalī,33.7499,45.5541,10.7,46,0,1.92,IQ,1612153191
Viranşehir,37.2353,39.7631,5.61,88,99,3.32,TR,1612153191
Hornepayne,49.2138,-84.7705,-15.34,94,100,1.8,CA,1612153191
Viedma,-40.8135,-62.9967,13.89,75,3,5.61,AR,1612153192
Marihatag,8.7936,126.2969,27.62,80,100,3.44,PH,1612153192
Idritsa,56.3316,28.8988,-4.31,97,99,4.99,RU,1612153192
Vao,-22.6667,167.4833,24.35,77,100,10.98,NC,1612152931
The Valley,18.217,-63.0578,26.0,78,40,5.66,AI,1612153008
Towada,40.6127,141.2067,7.78,38,0,7.72,JP,1612153193
Oddur,4.1213,43.8894,17.79,84,0,7.27,SO,1612153193
Delaware,39.0004,-75.4999,2.0,100,90,6.69,US,1612153082
Bubaque,11.2833,-15.8333,25.68,65,60,1.66,GW,1612152711
Palmer,42.1584,-72.3287,-7.22,73,90,2.06,US,1612153095
Jalu,29.0331,21.5482,14.67,32,0,5.79,LY,1612152623
Abū Zabad,12.35,29.25,17.4,27,0,4.46,SD,1612153194
Provost,52.3501,-110.2683,-10.0,92,100,4.63,CA,1612153195
Santa Rosa,14.3122,121.1114,30.0,61,75,2.57,PH,1612153195
Tonekābon,36.8163,50.8738,7.0,76,40,1.37,IR,1612153195
Khujner,23.7833,76.6,19.11,25,0,2.59,IN,1612153195
Tuatapere,-46.1333,167.6833,19.01,65,66,2.6,NZ,1612153105
La Libertad,-2.2333,-80.9,25.61,80,100,4.94,EC,1612153082
Nizhniy Odes,63.6445,54.856,-1.49,98,100,6.44,RU,1612153196
Marabá,-5.3686,-49.1178,22.62,95,22,0.78,BR,1612153197
Kristinestad,62.2743,21.376,-7.57,97,100,1.29,FI,1612153197
Ust'-Ishim,57.6935,71.1665,-17.55,93,21,2.22,RU,1612153197
Borova,50.1763,30.1043,-5.56,92,91,2.0,UA,1612153197
Sept-Îles,50.2001,-66.3821,-7.0,58,9,2.57,CA,1612152902
Chumikan,54.7183,135.315,-27.65,79,30,7.78,RU,1612153198
Ketchikan,55.3422,-131.6461,1.0,100,90,1.57,US,1612152506
Arroyos y Esteros,-25.0667,-57.1,24.0,88,0,2.57,PY,1612153198
Sarangani,5.4033,125.4636,27.67,78,97,8.62,PH,1612153199
Misratah,32.3754,15.0925,14.32,67,0,6.77,LY,1612153199
Sabha,27.0377,14.4283,11.88,43,98,3.24,LY,1612153095
Safaga,26.7292,33.9365,14.0,44,0,3.09,EG,1612153200
Keti Bandar,24.1447,67.4497,22.11,72,0,2.3,PK,1612153200
Lao Cai,22.4833,103.95,23.05,58,94,0.58,VN,1612153175
Vestmannaeyjar,63.4427,-20.2734,0.94,86,57,7.82,IS,1612152955
Ciudad Bolivar,8.1222,-63.5497,24.49,75,96,5.71,VE,1612153201
Hinton,53.4001,-117.5857,1.0,80,57,1.54,CA,1612153201
Katsuura,35.1333,140.3,8.0,49,40,2.06,JP,1612152703
Sunel,24.3667,75.9667,18.97,25,0,1.86,IN,1612153201
Lakes Entrance,-37.8811,147.981,23.89,69,100,0.89,AU,1612153201
Yar-Sale,66.8333,70.8333,-23.96,90,100,3.9,RU,1612152919
Manono,-7.3,27.4167,21.52,93,100,0.26,CD,1612153202
Correntina,-13.3433,-44.6367,22.65,55,28,0.52,BR,1612153202
Kabo,7.6994,18.629,21.32,30,11,0.77,CF,1612153203
Berlevåg,70.8578,29.0864,-7.0,79,0,3.6,NO,1612153203
Geraldton,-28.7667,114.6,39.0,13,0,9.77,AU,1612153109
Mossamedes,-15.1961,12.1522,21.8,77,91,2.66,AO,1612153204
Straumen,63.8709,11.2999,0.0,92,40,3.09,NO,1612153204
Kokopo,-4.352,152.2633,29.66,70,42,4.81,PG,1612153158
Port Hardy,50.6996,-127.4199,6.0,100,90,2.06,CA,1612152742
Verkh-Usugli,52.7,115.1667,-25.42,79,75,1.15,RU,1612153205
Boa Vista,2.8197,-60.6733,27.0,69,0,4.12,BR,1612153080
Samdari,25.8167,72.5833,22.3,19,0,1.95,IN,1612153206
Ilhabela,-23.7781,-45.3581,25.04,83,98,1.79,BR,1612153119
Kamaishi,39.2667,141.8833,0.0,64,0,2.06,JP,1612153206
Sisimiut,66.9395,-53.6735,-13.31,80,78,3.55,GL,1612153207
Port Lincoln,-34.7333,135.8667,19.09,57,37,7.98,AU,1612153207
Lubango,-14.9172,13.4925,15.09,68,84,0.7,AO,1612153207
Coahuayana Viejo,18.7333,-103.6833,22.2,88,0,1.11,MX,1612152845
Awjilah,29.1081,21.2869,15.13,31,0,6.42,LY,1612153208
Rabo de Peixe,37.8,-25.5833,16.67,94,75,9.77,PT,1612153208
Flinders,-34.5833,150.8552,28.89,67,56,1.79,AU,1612152782
Ryōtsu-minato,38.0833,138.4333,8.0,42,0,4.63,JP,1612153208
Rundu,-17.9333,19.7667,19.23,95,100,1.6,NA,1612153208
Baft,29.234,56.6057,3.92,53,0,0.94,IR,1612153209
Matozinhos,-19.5578,-44.0814,23.0,64,0,3.09,BR,1612153209
Sur,22.5667,59.5289,23.89,45,0,0.64,OM,1612153209
Asproválta,40.7167,23.7,13.89,89,100,1.34,GR,1612153209
Leticia,-4.2153,-69.9406,24.0,100,90,1.03,CO,1612153210
Kismayo,-0.3582,42.5454,24.16,82,86,5.0,SO,1612153210
Saint-Pierre,-21.3393,55.4781,29.0,65,0,9.26,RE,1612153179
Itaparica,-12.8883,-38.6786,26.0,83,40,2.06,BR,1612153211
Dalvik,65.9702,-18.5286,-20.0,84,0,4.12,IS,1612153211
Maniwaki,46.3834,-75.966,-22.0,84,0,1.54,CA,1612153211
Kumul,42.8,93.45,0.59,68,0,2.92,CN,1612152728
Sitka,57.0531,-135.33,-1.0,80,1,1.94,US,1612152962
Dunedin,-45.8742,170.5036,19.44,59,61,7.6,NZ,1612153178
Killybegs,54.6333,-8.45,3.89,94,98,4.02,IE,1612153212
Philadelphia,39.9523,-75.1638,-4.0,86,90,7.72,US,1612153120
Santa Maria,-29.6842,-53.8069,22.0,100,20,0.51,BR,1612153213
Sayyan,15.1718,44.3244,6.86,51,0,1.45,YE,1612153213
Bad Aussee,47.61,13.7824,0.0,100,28,0.89,AT,1612153213
Bousso,10.4795,16.7117,20.43,24,0,2.21,TD,1612153213
Sajanan,37.0573,9.2426,14.0,62,40,5.66,TN,1612153213
Kamenka,51.3223,42.7678,-3.33,84,99,2.5,RU,1612153214
São João da Barra,-21.6403,-41.0511,24.97,82,82,8.79,BR,1612153026
Pierre,44.3683,-100.351,-1.67,93,90,3.09,US,1612153155
Howard Springs,-12.497,131.047,30.0,74,75,6.69,AU,1612153215
Ouadda,8.0777,22.4007,20.84,23,0,2.37,CF,1612153215
Richards Bay,-28.783,32.0377,24.86,91,100,5.69,ZA,1612152981
Hutchinson,38.0608,-97.9298,-1.11,80,1,3.6,US,1612153038
Sandwick,60.0,-1.25,-1.0,69,24,5.66,GB,1612153216
Kodino,63.7198,39.6447,-10.94,96,100,1.24,RU,1612153216
Amazar,53.858,120.875,-28.09,75,93,3.24,RU,1612153216
Aleksandrov Gay,50.147,48.5704,-0.76,98,100,3.16,RU,1612153217
Ongandjera,-17.8833,15.0667,19.97,51,79,2.74,NA,1612153217
Bongandanga,1.5,21.05,21.42,78,52,1.22,CD,1612153005
Koungou,-12.7336,45.2042,27.0,89,75,2.06,YT,1612153217
Yambio,4.5721,28.3955,20.47,44,67,0.76,SS,1612153217
Nabire,-3.3667,135.4833,24.88,90,100,2.05,ID,1612153218
Luganville,-15.5333,167.1667,26.23,81,99,2.55,VU,1612153218
Zyryanka,65.75,150.85,-33.43,82,100,7.68,RU,1612153218
Praia da Vitória,38.7333,-27.0667,18.0,100,75,13.81,PT,1612153218
Acajutla,13.5928,-89.8275,25.45,66,35,4.45,SV,1612153219
Uberaba,-19.7483,-47.9319,20.35,88,100,0.51,BR,1612153219
Nisibis,37.0778,41.2178,9.0,71,75,3.09,TR,1612153219
Talaya,61.3833,152.75,-34.2,78,100,5.57,RU,1612153219
Araouane,18.9048,-3.5265,17.96,23,50,4.18,ML,1612153220
Alice Springs,-23.7,133.8833,37.0,20,0,6.17,AU,1612153220
Santa Cruz de La Palma,28.6835,-17.7642,17.0,88,0,5.14,ES,1612153146
San-Pédro,4.7485,-6.6363,24.87,92,25,2.25,CI,1612153220
Los Llanos de Aridane,28.6585,-17.9182,17.0,88,0,5.14,ES,1612152959
Caucaia,-3.7361,-38.6531,27.22,78,75,7.2,BR,1612153221
Anadyr,64.75,177.4833,-12.0,85,90,24.0,RU,1612153221
Arrondissement de Brive-la-Gaillarde,45.25,1.5,10.56,97,100,2.24,FR,1612153221
Naze,28.3667,129.4833,23.0,53,20,7.72,JP,1612153125
Tibati,6.4667,12.6333,15.84,33,0,1.24,CM,1612153222
Finschhafen,-6.6024,147.8681,29.8,73,68,5.76,PG,1612153222
Roald,62.5833,6.1333,0.0,74,90,3.6,NO,1612153222
Luwingu,-10.2621,29.9271,17.38,96,100,1.85,ZM,1612153223
Fes,34.0372,-4.9998,11.0,100,75,1.54,MA,1612153223
Stulovo,58.7225,50.1439,-4.24,97,100,8.65,RU,1612153223
Karratha,-20.7377,116.8463,25.68,80,100,7.66,AU,1612153223
Edson,53.5835,-116.4356,-10.0,85,75,2.06,CA,1612152761
Jining,35.405,116.5814,11.27,37,61,5.1,CN,1612152982
Katherine,-14.4667,132.2667,32.0,55,40,3.09,AU,1612153224
Klaksvík,62.2266,-6.589,-4.0,86,99,1.03,FO,1612152678
El Sauzal de Rodríguez,31.9,-116.6833,12.78,81,100,1.1,MX,1612153224
