City,Lat,Lng,Max Temp,Humidity,Cloudiness,Wind Speed,Country,Date
Geraldton,-28.7667,114.6,64.4,77,90,24.16,AU,1612574521
Rikitea,-23.1203,-134.9692,78.76,70,11,12.75,PF,1612574215
Vila Velha,-20.3297,-40.2925,82.4,74,75,10.36,BR,1612574546
Riviere-au-Renard,48.9957,-64.3971,32.0,93,90,4.61,CA,1612574614
Kapaa,22.0752,-159.319,71.6,56,1,5.75,US,1612574369
Jamestown,42.097,-79.2353,23.0,68,90,17.27,US,1612574464
Sicuani,-14.2694,-71.2261,49.82,75,100,4.85,PE,1612574615
Lebu,-37.6167,-73.65,57.87,92,11,3.69,CL,1612574374
Hilo,19.7297,-155.09,75.2,64,90,10.36,US,1612574457
Ushuaia,-54.8,-68.3,46.4,76,40,26.46,AR,1612574408
Saskylakh,71.9167,114.0833,-31.31,83,78,5.37,RU,1612574244
Severo-Kuril'sk,50.6789,156.125,16.38,81,71,6.38,RU,1612574429
New Norfolk,-42.7826,147.0587,77.0,36,0,7.0,AU,1612574448
Camargo,27.6667,-105.1667,66.51,21,0,4.05,MX,1612574616
Kermanshah,34.3142,47.065,42.8,93,90,11.5,IR,1612574617
Puerto Ayora,-0.7393,-90.3518,77.0,94,77,4.0,EC,1612574506
Pisco,-13.7,-76.2167,71.6,83,0,10.36,PE,1612574413
Tasiilaq,65.6145,-37.6368,26.6,74,75,21.85,GL,1612574362
Challapata,-18.9,-66.7667,54.77,56,100,7.09,BO,1612574618
Labuhan,-6.8844,112.2051,81.19,80,99,11.1,ID,1612574499
Bengkulu,-3.8004,102.2655,78.51,78,100,4.79,ID,1612574528
Chui,-33.6971,-53.4616,60.49,84,10,6.73,UY,1612574397
Vaini,-21.2,-175.2,84.2,89,75,4.61,TO,1612574470
Butaritari,3.0707,172.7902,81.39,80,93,17.76,KI,1612574478
Aksarka,66.5606,67.7975,-21.1,87,100,14.18,RU,1612574619
Atuona,-9.8,-139.0333,79.77,79,3,17.22,PF,1612574463
Busselton,-33.65,115.3333,64.99,71,100,5.01,AU,1612574356
Thompson,55.7435,-97.8558,-22.0,69,75,13.8,CA,1612574416
Punta Arenas,-53.15,-70.9167,48.2,61,0,16.11,CL,1612574190
Masasi,-10.7167,38.8,69.31,100,97,1.95,TZ,1612574620
La Ligua,-32.4524,-71.2311,60.8,88,75,5.75,CL,1612574620
Grand Gaube,-20.0064,57.6608,75.99,84,27,8.99,MU,1612574621
Sabak,3.7675,100.9875,77.0,88,20,3.44,MY,1612574621
Bredasdorp,-34.5322,20.0403,60.8,94,0,1.14,ZA,1612574469
Qaanaaq,77.484,-69.3632,-4.9,77,100,7.94,GL,1612574482
Vaitape,-16.5167,-151.75,81.72,64,0,4.09,PF,1612574621
Faanui,-16.4833,-151.75,81.39,65,0,5.26,PF,1612574218
Diamantino,-14.4086,-56.4461,75.76,85,100,2.73,BR,1612574440
Bluff,-46.6,168.3333,60.35,71,33,2.04,NZ,1612574459
Celestún,20.8667,-90.4,74.34,78,0,8.1,MX,1612574480
Khatanga,71.9667,102.5,-33.66,79,9,7.56,RU,1612574248
Norman Wells,65.282,-126.8329,-27.4,68,20,4.61,CA,1612574388
Port Alfred,-33.5906,26.891,69.01,93,100,14.92,ZA,1612574360
Kalmunai,7.4167,81.8167,75.02,88,56,9.57,LK,1612574439
Awjilah,29.1081,21.2869,53.29,59,0,3.69,LY,1612574623
Caraquet,47.7941,-64.9386,28.4,93,100,2.3,CA,1612574624
Esperance,-33.8667,121.9,62.6,82,90,10.36,AU,1612574516
Albany,42.6001,-73.9662,37.99,72,9,5.97,US,1612574215
Mackay,-21.15,149.2,86.0,70,75,10.36,AU,1612574578
Vila Franca do Campo,37.7167,-25.4333,57.99,94,75,10.36,PT,1612574624
Hermanus,-34.4187,19.2345,66.99,88,4,1.99,ZA,1612574228
Vostok,46.4856,135.8833,6.31,93,100,3.42,RU,1612574530
Port Hedland,-20.3167,118.5667,86.0,62,40,6.91,AU,1612574577
Chokurdakh,70.6333,147.9167,-16.82,87,95,12.1,RU,1612574510
Narsaq,60.9167,-46.05,12.2,57,0,5.75,GL,1612574381
Tuatapere,-46.1333,167.6833,68.2,64,29,6.62,NZ,1612574376
Castro,-24.7911,-50.0119,59.86,56,0,2.51,BR,1612574461
George Town,5.4112,100.3354,82.0,74,20,6.02,MY,1612574463
Bekwai,6.4534,-1.5774,75.58,91,10,4.56,GH,1612574627
Mount Isa,-20.7333,139.5,87.8,48,40,9.22,AU,1612574535
Provideniya,64.3833,-173.3,8.33,92,100,8.93,RU,1612574465
Carnarvon,-24.8667,113.6333,82.4,100,90,24.16,AU,1612574480
Olafsvik,64.8945,-23.7142,38.12,78,100,25.46,IS,1612574520
Nhulunbuy,-12.2333,136.7667,82.4,74,90,14.97,AU,1612574490
Manokwari,-0.8667,134.0833,82.36,73,83,6.71,ID,1612574628
Hasaki,35.7333,140.8333,52.0,61,20,6.91,JP,1612574501
Barrow,71.2906,-156.7887,-11.2,77,20,8.05,US,1612574362
Avarua,-21.2078,-159.775,84.2,74,40,13.8,CK,1612574498
Laguna,38.421,-121.4238,62.6,39,1,6.91,US,1612574556
Port Elizabeth,-33.918,25.5701,69.8,94,90,6.91,ZA,1612574362
East London,-33.0153,27.9116,73.63,89,97,10.13,ZA,1612574238
Vanimo,-2.6741,141.3028,85.12,65,52,1.72,PG,1612574367
Kavieng,-2.5744,150.7967,83.3,72,73,4.05,PG,1612574592
Songjianghe,42.1859,127.479,23.07,95,100,5.12,CN,1612574630
Sompeta,18.9333,84.6,66.61,52,0,4.61,IN,1612574630
Vysokogornyy,50.1167,139.15,-6.77,86,51,2.71,RU,1612574630
Kizner,56.2749,51.508,16.83,95,99,10.11,RU,1612574630
Leningradskiy,69.3833,178.4167,-9.06,87,100,8.14,RU,1612574487
Mangan,27.5167,88.5333,51.42,48,94,5.44,IN,1612574631
Griffith,41.5284,-87.4237,14.0,73,1,16.11,US,1612574454
Mwene-Ditu,-7.0,23.45,67.19,94,100,3.06,CD,1612574631
Tiksi,71.6872,128.8694,-19.35,88,100,8.43,RU,1612574465
Nara,34.6851,135.8049,57.0,54,0,3.44,JP,1612574632
Gigmoto,13.7796,124.39,80.98,79,63,7.78,PH,1612574632
Smithers,54.7804,-127.1743,30.2,74,90,8.05,CA,1612574632
Torbay,47.6666,-52.7314,36.0,93,90,26.46,CA,1612574460
Ponta do Sol,32.6667,-17.1,51.01,69,52,5.99,PT,1612574476
Podgornoye,51.735,39.1496,10.4,85,75,11.18,RU,1612574633
Yūbari,43.0378,141.9578,35.6,87,75,9.22,JP,1612574633
Mahébourg,-20.4081,57.7,78.8,78,40,9.22,MU,1612574569
Pevek,69.7008,170.3133,-14.49,85,100,1.63,RU,1612574498
Harindānga,22.0383,88.3214,62.6,82,0,5.19,IN,1612574407
Barra do Bugres,-15.0725,-57.1811,75.54,82,96,1.32,BR,1612574634
Mataura,-46.1927,168.8643,74.98,47,92,3.65,NZ,1612574475
Sitka,57.0531,-135.33,35.6,87,90,3.58,US,1612574613
Nouakchott,18.0858,-15.9785,64.4,68,100,17.27,MR,1612574625
Camopi,3.1655,-52.3158,72.54,97,98,3.42,GF,1612574635
Camaçari,-12.6975,-38.3242,82.4,78,20,17.27,BR,1612574635
San Patricio,28.017,-97.5169,57.99,77,90,12.66,US,1612574497
Faya,18.3851,42.4509,53.6,66,0,11.5,SA,1612574469
Mar del Plata,-38.0023,-57.5575,71.01,55,0,4.61,AR,1612574351
Port Lincoln,-34.7333,135.8667,66.61,70,73,17.05,AU,1612574373
Tuktoyaktuk,69.4541,-133.0374,-31.0,68,75,9.22,CA,1612574222
Udachny,66.4167,112.4,-37.71,78,0,2.13,RU,1612574637
Sharan,54.8167,54.0,32.04,99,100,10.8,RU,1612574637
Dingle,10.9995,122.6711,80.94,80,81,12.19,PH,1612574394
Hualmay,-11.0964,-77.6139,70.52,79,100,6.58,PE,1612574638
Lüderitz,-26.6481,15.1594,69.33,58,0,20.87,NA,1612574472
Shenzhen,22.5455,114.0683,68.0,73,0,2.77,CN,1612574414
Tocopilla,-22.092,-70.1979,68.31,61,53,5.03,CL,1612574414
Chara,56.9064,118.2631,-10.48,74,100,1.45,RU,1612574638
Cape Town,-33.9258,18.4232,69.01,88,0,17.27,ZA,1612574469
Saldanha,-33.0117,17.9442,62.6,88,0,10.36,ZA,1612574543
Münster,51.9624,7.6257,39.99,100,75,6.91,DE,1612574639
Coffs Harbour,-30.3,153.1333,84.2,54,40,14.97,AU,1612574639
Portland,45.5234,-122.6762,52.0,76,90,4.81,US,1612574402
Clyde River,70.4692,-68.5914,-14.8,76,90,11.5,CA,1612574260
Ahipara,-35.1667,173.1667,70.68,67,92,3.8,NZ,1612574589
Saint-François,46.4154,3.9054,46.0,100,90,3.44,FR,1612574433
Longyearbyen,78.2186,15.6401,28.4,69,75,16.11,SJ,1612574267
San Cristobal,7.7669,-72.225,67.69,83,100,1.9,VE,1612574565
Port Blair,11.6667,92.75,79.11,74,0,8.19,IN,1612574493
Marzuq,14.4,46.4667,54.37,34,0,4.52,YE,1612574641
Jiwani,25.05,61.7417,65.21,60,0,1.66,PK,1612574641
Nikolskoye,59.7035,30.7861,10.0,78,75,8.95,RU,1612574462
Saint George,37.1041,-113.5841,55.99,24,1,16.11,US,1612574461
Kumul,42.8,93.45,26.35,85,0,3.42,CN,1612574636
Maragogi,-9.0122,-35.2225,77.63,84,16,7.78,BR,1612574642
Ilulissat,69.2167,-51.1,10.4,31,100,13.8,GL,1612574486
Ribeira Grande,38.5167,-28.7,59.31,83,100,13.58,PT,1612574541
College,64.8569,-147.8028,-2.2,71,75,3.44,US,1612574643
Aksu,41.1231,80.2644,22.62,87,83,1.88,CN,1612574363
Tura,25.5198,90.2201,59.61,48,0,2.17,IN,1612574643
Babol,36.5513,52.679,55.17,78,98,9.69,IR,1612574643
Touros,-5.1989,-35.4608,75.2,88,20,8.05,BR,1612574644
Denpasar,-8.65,115.2167,80.6,89,40,3.44,ID,1612574519
Marshall,34.3834,-86.3333,41.0,48,1,1.79,US,1612574558
Sakleshpur,12.9667,75.7833,59.74,60,64,5.77,IN,1612574644
Aktau,43.65,51.2,41.0,75,75,22.37,KZ,1612574644
Vardø,70.3705,31.1107,28.35,89,99,23.91,NO,1612574645
Sri Aman,1.2376,111.4621,78.8,94,20,2.3,MY,1612574645
Vao,-22.6667,167.4833,78.6,83,0,9.37,NC,1612574473
Makkah al Mukarramah,21.4267,39.8261,62.65,62,0,4.76,SA,1612574641
Nome,64.5011,-165.4064,15.8,86,90,24.16,US,1612574434
Kavaratti,10.5669,72.642,80.53,75,93,13.24,IN,1612574646
Bambous Virieux,-20.3428,57.7575,78.8,78,40,9.22,MU,1612574486
Guerrero Negro,27.9769,-114.0611,62.2,58,0,17.63,MX,1612574501
Iqaluit,63.7506,-68.5145,23.0,80,90,20.71,CA,1612574553
Anju,39.6178,125.6647,35.01,93,95,2.37,KP,1612574647
Chateaubelair,13.2833,-61.25,78.8,65,75,17.27,VC,1612574647
Sorrento,40.626,14.3744,61.0,42,0,1.99,IT,1612574648
Markova,48.6758,24.4138,28.78,96,100,3.58,UA,1612574648
Saint-Augustin,51.226,-58.6502,29.19,96,87,10.47,CA,1612574536
Homer,59.6425,-151.5483,27.0,93,90,5.75,US,1612574648
Rawlins,41.7911,-107.2387,28.4,54,20,29.93,US,1612574649
Nizhniy Tsasuchey,50.5167,115.1333,-3.48,86,0,9.82,RU,1612574649
Manicoré,-5.8092,-61.3003,75.2,100,0,4.61,BR,1612574649
Kontagora,10.3999,5.4695,73.8,20,22,5.57,NG,1612574649
Korla,41.7597,86.1469,24.94,83,86,2.01,CN,1612574522
Rocha,-34.4833,-54.3333,58.53,87,0,5.55,UY,1612574650
Tres Arroyos,-38.3739,-60.2798,72.54,30,0,7.47,AR,1612574650
São Filipe,14.8961,-24.4956,69.82,75,9,11.56,CV,1612574483
Pontes e Lacerda,-15.2261,-59.3353,73.94,88,100,1.28,BR,1612574651
Viedma,-40.8135,-62.9967,68.0,82,0,1.01,AR,1612574651
Saint-Philippe,-21.3585,55.7679,78.8,65,75,6.91,RE,1612574368
Padre Bernardo,-15.35,-48.5,71.96,91,100,2.71,BR,1612574652
Semīrom,31.4167,51.5667,35.31,82,0,4.05,IR,1612574652
Beringovskiy,63.05,179.3167,-5.06,88,100,7.27,RU,1612574469
Kaitangata,-46.2817,169.8464,62.01,71,91,8.01,NZ,1612574460
Fairbanks,64.8378,-147.7164,-2.2,65,90,2.91,US,1612574569
Mogadishu,2.0371,45.3438,75.07,85,51,15.41,SO,1612574561
Wynyard,-41.0,145.7167,61.0,85,0,5.01,AU,1612574653
Husavik,66.0449,-17.3389,30.2,69,40,4.61,IS,1612574576
Sobolevo,54.4299,31.8996,-0.2,93,50,8.23,RU,1612574543
Katsuura,35.1333,140.3,53.01,57,20,3.44,JP,1612574488
Bethel,41.3712,-73.414,35.01,93,1,9.15,US,1612574470
Klaksvík,62.2266,-6.589,32.0,100,40,10.36,FO,1612574472
Saint Paul Harbor,57.79,-152.4072,39.2,65,40,12.66,US,1612574377
Escanaba,45.7453,-87.0646,8.6,66,90,9.22,US,1612574655
Sørland,67.667,12.6934,34.81,84,100,24.87,NO,1612574526
Egvekinot,66.3167,-179.1667,-9.45,93,100,15.68,RU,1612574484
Sulangan,11.1373,123.7228,80.56,79,97,11.14,PH,1612574580
Isangel,-19.55,169.2667,86.0,70,20,3.44,VU,1612574556
Esim,4.8699,-2.2405,79.56,87,40,9.62,GH,1612574656
Darhan,49.4867,105.9228,-0.81,85,0,3.76,MN,1612574656
Kropotkin,45.4375,40.5756,31.78,89,86,15.12,RU,1612574656
Yellowknife,62.456,-114.3525,-31.0,61,90,9.22,CA,1612574226
Harper,4.375,-7.7169,79.14,89,0,8.39,LR,1612574600
Mvuma,-19.2792,30.5283,63.68,89,100,3.83,ZW,1612574657
Los Llanos de Aridane,28.6585,-17.9182,60.8,59,75,19.57,ES,1612574505
Cidreira,-30.1811,-50.2056,68.02,73,0,14.12,BR,1612574466
Henties Bay,-22.116,14.2845,64.0,90,35,1.01,NA,1612574446
Hamilton,39.1834,-84.5333,35.01,55,1,8.05,US,1612574537
Pochutla,15.7432,-96.4661,78.8,73,75,11.5,MX,1612574566
Tadine,-21.55,167.8833,82.53,71,0,7.83,NC,1612574552
Coyhaique,-45.5752,-72.0662,69.8,52,0,4.61,CL,1612574538
Waddān,29.1614,16.139,59.49,35,98,6.55,LY,1612574523
Punta Gorda,26.9298,-82.0454,66.0,77,1,4.61,US,1612574659
Talnakh,69.4865,88.3972,-27.56,83,51,4.56,RU,1612574558
Grajaú,-5.8194,-46.1386,74.37,93,97,2.46,BR,1612574660
Waitati,-45.75,170.5667,61.0,72,56,28.01,NZ,1612574660
Bousso,10.4795,16.7117,70.74,21,1,7.27,TD,1612574660
Pedro Juan Caballero,-22.5472,-55.7333,63.63,90,2,2.15,PY,1612574661
Channel-Port aux Basques,47.5702,-59.1367,32.9,93,99,17.07,CA,1612574661
Kahului,20.8947,-156.47,75.2,53,40,11.5,US,1612574549
Tessalit,20.1986,1.0114,71.31,19,100,14.29,ML,1612574661
Aklavik,68.2191,-135.0107,-32.8,68,20,4.61,CA,1612574588
Carauari,-4.8828,-66.8958,73.49,98,100,3.49,BR,1612574613
Saint-Ambroise,48.5501,-71.3324,28.99,93,87,8.05,CA,1612574662
Plettenberg Bay,-34.0527,23.3716,67.46,90,0,5.14,ZA,1612574364
Tabory,58.5198,64.5495,35.04,96,100,11.32,RU,1612574662
Avera,33.194,-82.5271,51.8,40,75,5.75,US,1612574562
Matara,5.9485,80.5353,73.65,86,62,3.91,LK,1612574541
Cherskiy,68.75,161.3,-14.53,77,30,0.98,RU,1612574520
Okhotsk,59.3833,143.3,0.7,86,100,7.4,RU,1612574553
Nishihara,26.1842,127.7558,71.6,43,20,5.75,JP,1612574628
Les Escoumins,48.1111,-69.0236,28.4,93,100,2.3,CA,1612574664
Arraial do Cabo,-22.9661,-42.0278,73.96,94,100,2.13,BR,1612574237
Omsukchan,62.5333,155.8,-15.93,85,100,2.35,RU,1612574664
Padang,-0.9492,100.3543,80.6,74,20,2.3,ID,1612574273
Sebeta,8.9167,38.6167,55.47,46,0,1.72,ET,1612574664
Port Macquarie,-31.4333,152.9167,82.99,58,100,13.96,AU,1612574392
Hobart,-42.8794,147.3294,77.0,41,40,14.97,AU,1612574359
Atar,20.5169,-13.0499,58.95,55,99,11.72,MR,1612574580
Ugoofaaru,5.6667,73.0,81.25,76,100,10.92,MV,1612574665
Richards Bay,-28.783,32.0377,75.27,90,84,1.25,ZA,1612574665
Hithadhoo,-0.6,73.0833,81.79,80,100,15.14,MV,1612574475
Kruisfontein,-34.0033,24.7314,70.0,88,15,1.99,ZA,1612574228
Terra Santa,-2.1042,-56.4869,81.27,65,64,3.42,BR,1612574666
North Platte,41.1239,-100.7654,32.0,64,75,8.05,US,1612574667
Santo André,-23.6639,-46.5383,68.0,88,40,5.75,BR,1612574667
Campbellton,48.0075,-66.6727,28.4,93,100,1.14,CA,1612574667
Payakumbuh,-0.2202,100.6308,71.42,87,92,1.92,ID,1612574569
La Paz,-16.5,-68.15,50.0,76,75,2.3,BO,1612574416
Hamīrpur,25.95,80.15,51.67,83,0,6.13,IN,1612574668
Dikson,73.5069,80.5464,-31.65,85,9,10.87,RU,1612574379
Tazovsky,67.4667,78.7,-35.93,82,88,6.96,RU,1612574553
Fernie,49.5,-115.0687,24.8,67,88,27.63,CA,1612574668
Constitución,-35.3333,-72.4167,56.95,90,0,0.45,CL,1612574480
Bouna,9.2667,-3.0,78.4,24,93,2.3,CI,1612574669
Onguday,50.75,86.15,26.22,93,100,1.88,RU,1612574639
Buarcos,40.166,-8.8768,51.01,93,75,6.91,PT,1612574669
Lázaro Cárdenas,17.9583,-102.2,75.65,75,0,3.44,MX,1612574669
Say,13.1007,2.3689,77.0,16,56,8.05,NE,1612574670
Nanortalik,60.1432,-45.2371,20.46,74,0,3.4,GL,1612574561
Bara,10.3744,10.7288,70.07,23,0,9.62,NG,1612574670
Mitsamiouli,-11.3847,43.2844,82.76,69,16,3.29,KM,1612574670
Boa Vista,2.8197,-60.6733,80.6,69,0,11.5,BR,1612574593
Alice Springs,-23.7,133.8833,82.99,31,90,10.36,AU,1612574503
Kimberley,-28.7323,24.7623,68.0,88,0,11.5,ZA,1612574671
Cabo San Lucas,22.8909,-109.9124,75.2,53,20,11.5,MX,1612574397
Magadan,59.5667,150.8,-1.19,84,92,15.21,RU,1612574671
Hambantota,6.1241,81.1185,73.4,100,75,3.44,LK,1612574371
Montepuez,-13.1256,38.9997,69.46,99,100,2.13,MZ,1612574672
Margate,51.3813,1.3862,45.0,92,88,6.55,GB,1612574672
Kalakamati,-20.5929,27.3121,68.25,88,100,4.88,BW,1612574672
Port-Gentil,-0.7193,8.7815,81.91,83,79,9.82,GA,1612574673
Maţāy,28.419,30.7792,52.79,91,0,6.82,EG,1612574478
Sampang,-7.1872,113.2394,80.6,89,20,9.22,ID,1612574673
West Bay,19.3667,-81.4167,78.8,83,40,9.22,KY,1612574562
Kangaatsiaq,68.3065,-53.4641,10.58,83,100,14.16,GL,1612574667
Coquimbo,-29.9533,-71.3436,60.8,88,75,6.91,CL,1612574627
High Level,58.5169,-117.136,-18.4,69,1,3.44,CA,1612574500
Airai,-8.9266,125.4092,67.15,96,100,5.1,TL,1612574590
Hohhot,40.8106,111.6522,19.4,63,0,4.47,CN,1612574674
Fortuna,40.5982,-124.1573,51.01,93,90,10.36,US,1612574574
La Unión,-5.4,-80.75,80.35,54,100,15.41,PE,1612574675
Yar-Sale,66.8333,70.8333,-18.44,88,100,10.76,RU,1612574531
Arrecife,28.963,-13.5477,57.2,77,20,3.44,ES,1612574675
Khāsh,28.2211,61.2158,40.35,50,0,0.78,IR,1612574675
Hong Kong,22.2855,114.1577,68.0,80,0,4.76,HK,1612574341
De-Kastri,51.4667,140.7833,-3.23,86,98,7.63,RU,1612574676
Muros,42.7762,-9.0603,51.01,80,93,8.01,ES,1612574676
Dudinka,69.4058,86.1778,-30.19,84,100,4.54,RU,1612574676
Lavrentiya,65.5833,-171.0,2.86,92,100,14.97,RU,1612574458
Payson,40.0444,-111.7321,35.01,86,90,6.91,US,1612574677
Necochea,-38.5473,-58.7368,68.0,56,0,11.21,AR,1612574677
Shar,49.5886,81.0453,21.88,94,100,9.51,KZ,1612574478
Cap Malheureux,-19.9842,57.6142,75.99,84,28,8.99,MU,1612574563
Yeppoon,-23.1333,150.7333,89.6,45,40,4.61,AU,1612574443
The Valley,18.217,-63.0578,78.8,65,20,9.22,AI,1612574678
Ixtapa,20.7,-105.2,73.4,78,1,3.44,MX,1612574470
Camacha,33.0833,-16.3333,57.2,72,40,18.41,PT,1612574678
Bud,39.447,-86.1758,30.0,74,67,8.81,US,1612574679
Kyshtovka,56.555,76.6271,25.09,98,100,8.68,RU,1612574417
Palimbang,6.2106,124.1894,83.03,65,100,3.65,PH,1612574679
Kenai,60.5544,-151.2583,16.0,79,90,6.91,US,1612574679
Muyezerskiy,63.9333,31.65,4.62,94,98,9.84,RU,1612574680
Teahupoo,-17.8333,-149.2667,86.0,62,75,10.36,PF,1612574369
Souillac,-20.5167,57.5167,78.8,78,40,9.22,MU,1612574266
Pinega,64.7001,43.3936,-6.07,88,100,13.2,RU,1612574680
Yinchuan,38.4681,106.2731,33.48,68,0,3.69,CN,1612574680
Vorkuta,67.5,64.0,-20.67,86,96,8.75,RU,1612574681
Mount Gambier,-37.8333,140.7667,66.2,59,40,13.8,AU,1612574482
Batouri,4.4333,14.3667,67.73,30,67,1.7,CM,1612574681
Kidal,18.4411,1.4078,70.32,20,100,11.34,ML,1612574637
Hobyo,5.3505,48.5268,75.54,74,27,15.03,SO,1612574682
Tilichiki,60.4667,166.1,6.8,96,100,8.23,RU,1612574518
Huilong,31.8111,121.655,51.01,78,0,1.99,CN,1612574533
Saint-Joseph,-21.3667,55.6167,78.8,65,75,6.91,RE,1612574444
Pangnirtung,66.1451,-65.7125,24.3,92,100,4.9,CA,1612574623
Tabou,4.423,-7.3528,78.62,91,69,6.55,CI,1612574683
La Providencia,28.7167,-111.5833,66.0,37,0,8.01,MX,1612574471
Acapulco de Juárez,16.8634,-99.8901,80.6,69,75,2.3,MX,1612574515
Dunedin,-45.8742,170.5036,61.0,72,32,28.01,NZ,1612574560
Mahon,39.8885,4.2658,62.6,67,40,12.66,ES,1612574446
Porto-Novo,6.4965,2.6036,84.2,84,40,11.5,BJ,1612574487
Te Anau,-45.4167,167.7167,75.04,40,78,1.83,NZ,1612574533
Ginir,7.1333,40.7,55.94,43,0,5.57,ET,1612574685
Shimoda,34.6667,138.95,57.2,38,75,16.11,JP,1612574492
Sambava,-14.2667,50.1667,75.85,86,84,4.99,MG,1612574589
Aberdare,51.7144,-3.4492,39.2,100,40,4.61,GB,1612574685
Tawang Town,27.5833,91.8667,28.71,78,0,4.23,IN,1612574685
Mossamedes,-15.1961,12.1522,70.65,80,86,6.55,AO,1612574608
Ojuelos de Jalisco,21.8667,-101.5833,66.27,20,0,13.6,MX,1612574686
Dawlatabad,36.4141,64.9053,48.24,44,92,2.71,AF,1612574686
Zinder,13.8072,8.9881,63.82,27,0,10.2,NE,1612574686
Uíge,-7.6087,15.0613,68.13,88,99,0.87,AO,1612574686
Barra de Tecoanapa,16.5167,-98.75,78.55,71,5,5.82,MX,1612574687
Senanga,-16.1167,23.2667,68.04,89,100,2.35,ZM,1612574687
Toora-Khem,52.4675,96.11,-0.24,90,99,1.39,RU,1612574687
Kutum,14.2,24.6667,46.94,51,99,9.71,SD,1612574687
Zhigansk,66.7697,123.3711,-42.66,75,73,4.16,RU,1612574470
Kiryat Gat,31.61,34.7642,57.99,100,58,3.27,IL,1612574402
Nuevo Laredo,27.4763,-99.5164,66.2,45,1,8.05,MX,1612574688
Bayshore Gardens,27.4253,-82.5904,66.99,82,1,11.5,US,1612574688
Vernon,50.2581,-119.2691,41.0,60,96,2.3,CA,1612574487
Comodoro Rivadavia,-45.8667,-67.5,59.0,67,0,12.66,AR,1612574293
Rome,43.2128,-75.4557,30.2,80,90,9.22,US,1612574689
Kaseda-shirakame,31.4167,130.3167,48.2,100,75,3.44,JP,1612574689
Sabang,5.8933,95.3214,81.3,77,3,16.89,ID,1612574689
Cariamanga,-4.3333,-79.55,54.25,100,100,2.24,EC,1612574690
Ketchikan,55.3422,-131.6461,37.4,87,90,3.44,US,1612574690
Shubarshi,48.5872,57.1869,33.24,94,100,9.57,KZ,1612574690
Ziduri,45.3,27.0833,39.2,88,76,3.62,RO,1612574690
Xining,36.6167,101.7667,21.6,57,99,2.08,CN,1612574470
Maraã,-1.8333,-65.3667,75.7,95,100,0.4,BR,1612574691
Lakes Entrance,-37.8811,147.981,80.01,45,3,15.99,AU,1612574691
Teya,60.3778,92.6267,-2.45,89,100,4.36,RU,1612574553
Beira,-19.8436,34.8389,84.0,89,20,2.3,MZ,1612574692
Vanderhoof,54.0166,-124.0198,25.43,98,100,4.07,CA,1612574692
Ballina,-28.8667,153.5667,84.2,65,40,8.05,AU,1612574562
Batagay,67.6333,134.6333,-32.48,82,100,1.54,RU,1612574596
Vuktyl,63.8567,57.3094,-2.99,90,100,11.01,RU,1612574693
Kamenka,51.3223,42.7678,15.01,84,100,15.26,RU,1612574512
Kerewan,13.4898,-16.0888,66.2,72,0,8.05,GM,1612574693
Ishigaki,24.3448,124.1572,73.4,64,20,2.3,JP,1612574693
Uarini,-2.99,-65.1083,77.0,100,75,2.3,BR,1612574693
Batemans Bay,-35.7167,150.1833,71.01,92,85,15.01,AU,1612574694
Taoudenni,22.6783,-3.9836,75.56,21,100,9.4,ML,1612574396
Candelaria,13.9311,121.4233,75.0,93,95,8.01,PH,1612574694
Cavalcante,-13.7975,-47.4583,71.24,86,100,1.79,BR,1612574694
Lishui,28.4604,119.9103,60.82,75,69,1.74,CN,1612574695
Puerto Limón,10.0,-83.0333,80.6,83,40,6.91,CR,1612574695
Sisimiut,66.9395,-53.6735,15.37,78,100,14.25,GL,1612574553
Broken Hill,-31.95,141.4333,73.4,43,0,16.11,AU,1612574517
Bandarbeyla,9.4942,50.8122,73.26,71,0,8.19,SO,1612574481
Launceston,-41.45,147.1667,68.0,64,75,27.63,AU,1612574696
Half Moon Bay,37.4636,-122.4286,60.01,82,1,3.44,US,1612574519
Tosya,41.0155,34.0401,40.35,69,12,4.21,TR,1612574696
Quryq,43.2,51.65,44.91,67,100,23.04,KZ,1612574696
Riyadh,24.6877,46.7219,62.6,63,100,17.27,SA,1612574463
Chișinău,47.0056,28.8575,32.0,100,90,5.75,MD,1612574697
Amahai,-3.3333,128.9167,86.43,63,0,3.0,ID,1612574697
Key Biscayne,25.6937,-80.1628,71.6,78,20,5.75,US,1612574697
Lamu,-2.2717,40.902,76.03,89,33,9.24,KE,1612574666
Ubari,26.5921,12.7805,57.79,35,81,10.74,LY,1612574628
Moerai,-22.4333,-151.3333,81.09,71,0,11.36,PF,1612574590
Cayenne,4.9333,-52.3333,78.8,89,75,9.22,GF,1612574397
Nuuk,64.1835,-51.7216,19.4,68,0,18.41,GL,1612574458
Beloha,-25.1667,45.05,74.71,93,81,3.76,MG,1612574429
Bathsheba,13.2167,-59.5167,78.8,61,20,21.85,BB,1612574462
Asău,46.4333,26.4,34.0,75,100,1.52,RO,1612574524
Nānākuli,21.3906,-158.1547,77.0,47,1,17.27,US,1612574699
Waipawa,-41.4122,175.5153,62.01,77,90,13.8,NZ,1612574585
Bandundu Province,-3.3167,17.3667,74.19,92,100,3.06,CD,1612574700
Dhārchula,29.85,80.5333,38.44,66,69,7.07,IN,1612574700
Carutapera,-1.195,-46.02,78.33,80,62,7.83,BR,1612574700
Mēga,4.05,38.3,57.49,57,0,4.99,ET,1612574700
Aitape,-3.1374,142.3475,77.99,81,100,5.06,PG,1612574701
Gunnedah,-30.9833,150.25,73.99,80,100,1.01,AU,1612574701
Vestmannaeyjar,63.4427,-20.2734,41.0,68,97,27.49,IS,1612574592
Naze,28.3667,129.4833,71.6,60,20,18.41,JP,1612574266
Burns Lake,54.2331,-125.7533,26.6,86,100,2.3,CA,1612574702
Meulaboh,4.1363,96.1285,77.2,86,34,3.8,ID,1612574549
Bulawayo,-20.15,28.5833,65.66,93,100,9.51,ZW,1612574702
Galle,6.0367,80.217,74.82,88,23,6.89,LK,1612574703
Mormugao,15.4,73.8,71.6,94,0,5.75,IN,1612574703
Lata,40.1629,-8.3327,51.01,93,100,1.01,PT,1612574258
Tāki,22.5861,88.9214,62.6,82,0,4.9,IN,1612574603
Whitianga,-36.8333,175.7,69.03,53,100,10.98,NZ,1612574704
Charters Towers,-20.1,146.2667,85.24,60,92,11.48,AU,1612574704
Namatanai,-3.6667,152.4333,82.83,70,96,4.79,PG,1612574399
Freeport,40.6576,-73.5832,39.0,81,1,11.88,US,1612574481
Ojinaga,29.5667,-104.4167,68.0,18,1,4.09,MX,1612574705
Mitú,1.1983,-70.1733,73.29,96,100,1.14,CO,1612574705
Raudeberg,61.9875,5.1352,27.0,50,0,7.31,NO,1612574705
Rio Grande,-32.035,-52.0986,63.0,90,21,15.12,BR,1612574662
Qui Nhon,13.7667,109.2333,70.83,87,62,8.52,VN,1612574705
Wanaka,-44.7,169.15,75.24,45,93,3.13,NZ,1612574706
Codrington,-38.2667,141.9667,65.32,63,0,14.41,AU,1612574422
Mildura,-34.2,142.15,75.0,53,75,13.8,AU,1612574706
Pangody,65.85,74.4859,-14.17,89,100,12.06,RU,1612574524
Gorontalo,0.5412,123.0595,81.55,82,100,2.64,ID,1612574707
Bhisho,-32.8472,27.4422,65.98,97,76,5.77,ZA,1612574707
Xinzhou,38.4092,112.7333,35.04,69,0,1.28,CN,1612574707
Forsytheganj,52.6333,29.7333,13.42,96,99,8.19,BY,1612574708
Nālūt,30.3333,10.85,58.66,34,100,12.77,LY,1612574708
Bubaque,11.2833,-15.8333,79.0,57,100,16.35,GW,1612574587
Hakkâri Province,37.5833,44.1667,25.29,91,15,3.18,TR,1612574708
Kasulu,-4.5767,30.1025,73.4,88,75,2.28,TZ,1612574708
Wanning,18.8003,110.3967,68.9,83,57,5.84,CN,1612574424
Slave Lake,55.2834,-114.769,-7.6,77,90,6.91,CA,1612574617
San Quintín,30.4833,-115.95,59.5,75,0,13.09,MX,1612574489
Wenling,28.3669,121.36,63.0,88,44,7.65,CN,1612574709
Samarai,-10.6167,150.6667,85.32,70,33,8.34,PG,1612574558
Kazachinskoye,57.6953,93.2761,3.47,94,100,3.71,RU,1612574710
Safaga,26.7292,33.9365,62.6,67,0,12.66,EG,1612574710
Apodi,-5.6642,-37.7989,78.71,73,0,10.69,BR,1612574691
Tsimmerbude,54.675,20.1347,14.0,85,75,6.71,RU,1612574532
Soe,-9.8607,124.284,72.91,90,100,7.7,ID,1612574711
Livadeia,38.435,22.8739,52.0,68,5,1.01,GR,1612574711
Takoradze,4.8845,-1.7554,79.41,88,0,10.49,GH,1612574711
Moree,-29.4667,149.85,71.6,83,90,11.5,AU,1612574613
Kawalu,-7.3817,108.2082,78.26,78,3,3.76,ID,1612574544
Seoul,37.5683,126.9778,44.6,76,75,4.61,KR,1612574422
Aswān,24.0934,32.907,57.06,52,0,10.04,EG,1612574712
Humaitá,-7.5061,-63.0208,75.29,96,100,1.92,BR,1612574448
Iraray,8.9936,118.0511,81.14,77,100,11.12,PH,1612574712
Walvis Bay,-22.9575,14.5053,64.0,88,5,3.44,NA,1612574290
Borodianka,50.6448,29.9201,15.8,79,33,8.95,UA,1612574713
Jiuquan,39.7432,98.5174,28.18,70,99,3.62,CN,1612574713
Neyshabur,36.2133,58.7958,47.23,45,42,3.2,IR,1612574713
Pedra Branca,-5.4542,-39.7172,72.97,68,0,5.48,BR,1612574714
Poshekhon'ye,58.4993,39.1353,-1.03,92,100,8.12,RU,1612574714
Aykhal,66.0,111.5,-34.71,81,23,3.89,RU,1612574516
Manche,49.0,-1.1667,41.0,93,0,4.61,FR,1612574714
Mandera,3.9366,41.867,72.72,75,0,10.25,KE,1612574416
Flin Flon,54.7682,-101.865,-18.4,69,1,13.8,CA,1612574568
Sukhothai,17.25,99.6667,78.01,83,20,2.3,TH,1612574715
Lompoc,34.6391,-120.4579,60.8,51,1,11.5,US,1612574248
Laas,46.6166,10.7002,41.0,93,40,4.61,IT,1612574472
Tubmanburg,6.8708,-10.8172,75.33,94,34,2.64,LR,1612574716
Fare,-16.7,-151.0167,81.16,67,9,5.28,PF,1612574590
Belaya Gora,68.5333,146.4167,-15.88,89,100,4.79,RU,1612574603
Cockburn Town,21.4612,-71.1419,76.98,84,19,19.6,TC,1612574545
San Jose,37.3394,-121.895,64.0,51,1,6.91,US,1612574717
Vestmanna,62.1564,-7.1664,33.8,86,75,21.85,FO,1612574717
Morro Bay,35.3658,-120.8499,57.99,80,0,3.0,US,1612574717
Kalispell,48.1958,-114.3129,37.4,56,75,5.75,US,1612574550
Peleduy,59.6289,112.7406,-1.35,90,100,5.79,RU,1612574718
Ciudad del Carmen,18.6333,-91.8333,80.6,57,1,4.61,MX,1612574438
Jalu,29.0331,21.5482,52.16,65,0,2.77,LY,1612574718
Puerto Escondido,15.85,-97.0667,80.6,69,75,3.44,MX,1612574559
La Romana,18.4273,-68.9728,71.6,100,20,4.61,DO,1612574718
Song Phi Nong,14.2241,100.0209,77.0,77,27,4.0,TH,1612574719
Podyuga,61.095,40.8647,-5.94,90,100,8.55,RU,1612574719
Vallenar,-28.5708,-70.7581,64.62,65,0,1.1,CL,1612574719
Acajutla,13.5928,-89.8275,82.4,47,0,2.3,SV,1612574539
Sungai Penuh,-2.0833,101.3833,68.54,86,88,3.71,ID,1612574720
Lagos,6.5833,3.75,80.02,85,0,5.3,NG,1612574421
Jinchang,38.4953,102.1739,29.93,60,0,2.77,CN,1612574720
Nicolás Bravo,18.45,-88.9167,69.48,94,1,3.51,MX,1612574720
Nicoya,10.1483,-85.452,77.0,78,0,3.44,CR,1612574577
Namwala,-15.7504,26.4384,66.07,98,100,2.39,ZM,1612574721
Hervey Bay,-25.2986,152.8535,89.01,48,21,5.75,AU,1612574555
La Asuncion,11.0333,-63.8628,76.86,81,70,16.17,VE,1612574721
Sabha,27.0377,14.4283,56.88,36,0,10.25,LY,1612574572
Manggar,-2.8833,108.2667,81.86,77,77,14.0,ID,1612574581
Orašac,44.6289,16.0711,46.94,84,100,6.24,BA,1612574722
Yatou,37.15,122.3833,44.01,65,0,9.78,CN,1612574722
Plouzané,48.3833,-4.6167,39.2,93,75,4.61,FR,1612574722
Mmathubudukwane,-24.6,26.4333,68.0,100,75,8.05,BW,1612574723
Ila,63.4305,10.3705,19.99,92,0,10.36,NO,1612574723
Cajamarca,-7.1638,-78.5003,56.23,83,100,1.59,PE,1612574480
Saint-Louis,16.3333,-15.0,69.8,60,0,2.3,SN,1612574636
Chiang Khong,20.2613,100.4046,69.01,100,20,1.43,TH,1612574724
Çumra,37.5732,32.7745,32.0,86,0,4.61,TR,1612574724
Grand-Santi,4.25,-54.3833,72.79,96,72,2.77,GF,1612574725
Barranca,-10.75,-77.7667,69.26,84,99,5.97,PE,1612574725
Orán,-23.1322,-64.326,77.0,72,100,5.01,AR,1612574725
Sainte-Suzanne,-20.9061,55.6089,78.8,61,90,2.3,RE,1612574725
Havre-St-Pierre,50.2334,-63.5986,32.0,93,90,14.97,CA,1612574707
Krasnyy Yar,46.5331,48.3456,32.0,74,75,26.84,RU,1612574726
Abu Samrah,35.3029,37.1841,47.77,88,0,4.56,SY,1612574657
Marystown,47.1666,-55.1483,34.72,88,100,17.87,CA,1612574726
Abū Zabad,12.35,29.25,58.35,35,0,17.85,SD,1612574607
Coruripe,-10.1256,-36.1756,78.39,80,28,15.59,BR,1612574726
Bom Jesus,-9.0744,-44.3586,76.21,74,96,1.1,BR,1612574727
Pinhão,-25.6956,-51.6597,55.4,90,0,3.47,BR,1612574727
Santa Rosa,14.3122,121.1114,84.0,69,75,3.44,PH,1612574727
Dordrecht,51.81,4.6736,45.0,95,100,1.01,NL,1612574719
Alofi,-19.0595,-169.9187,80.6,83,100,13.8,NU,1612574389
Pierre,44.3683,-100.351,15.8,57,1,11.5,US,1612574728
Karratha,-20.7377,116.8463,82.58,67,23,11.1,AU,1612574561
Luwuk,-0.9516,122.7875,81.54,72,100,5.21,ID,1612574728
Bilibino,68.0546,166.4372,-8.79,78,100,3.67,RU,1612574556
Leça da Palmeira,41.191,-8.7003,50.0,81,75,12.66,PT,1612574729
Oswego,43.4501,-76.1497,28.99,64,90,11.5,US,1612574729
Ginda,30.6945,78.4932,32.05,73,0,7.23,IN,1612574583
Kununurra,-15.7667,128.7333,86.0,84,40,6.91,AU,1612574362
Nyurba,63.2842,118.3319,-39.57,80,19,4.07,RU,1612574730
Itarema,-2.9248,-39.9167,78.08,81,5,11.56,BR,1612574534
Charyshskoye,51.3978,83.5598,26.33,93,89,2.73,RU,1612574730
Sørkjosen,69.8,20.9333,26.67,93,100,13.87,NO,1612574731
Ruda Śląska,50.2584,18.8563,28.99,90,100,1.99,PL,1612574731
Casper,42.8666,-106.3131,30.99,74,40,5.75,US,1612574565
Kuruman,-27.4524,23.4325,67.71,84,0,3.6,ZA,1612574731
Ardeşen,41.1911,40.9875,48.2,87,90,6.91,TR,1612574732
Karoi,-16.8099,29.6925,63.97,97,65,3.47,ZW,1612574732
Vila,42.0304,-8.1588,44.01,91,100,8.5,PT,1612574732
Vredendal,-31.6683,18.5012,60.28,90,0,2.62,ZA,1612574732
Broome,42.2506,-75.833,30.2,59,90,14.97,US,1612574733
Boueni,-12.9025,45.0761,78.8,89,0,3.44,YT,1612574733
Antalya Province,36.7741,30.7178,57.0,76,0,3.44,TR,1612574733
Marolambo,-20.05,48.1167,69.4,92,94,1.45,MG,1612574734
Horodnytsya,50.807,27.3168,18.54,93,98,3.74,UA,1612574734
Marsá Maţrūḩ,31.3525,27.2453,59.0,82,75,6.91,EG,1612574546
Naryan-Mar,67.6713,53.087,-11.09,90,33,9.51,RU,1612574734
Akom,2.6678,12.7109,69.13,87,27,3.13,CM,1612574735
Auray,47.6703,-2.9918,42.8,87,90,6.91,FR,1612574735
Sturgeon Bay,44.8342,-87.377,8.6,72,90,13.8,US,1612574436
Thinadhoo,0.5333,72.9333,81.88,76,73,16.6,MV,1612574518
Rovinj,45.08,13.64,50.0,93,90,1.14,HR,1612574736
Qurayyat,31.3318,37.3428,51.8,87,75,23.02,SA,1612574736
Mayo,38.8876,-76.5119,44.6,36,1,9.22,US,1612574736
Araouane,18.9048,-3.5265,77.09,16,100,7.65,ML,1612574583
Khovd,48.0056,91.6419,9.63,89,36,0.89,MN,1612574555
Kribi,2.95,9.9167,79.97,85,50,6.51,CM,1612574737
Ostrovnoy,68.0531,39.5131,15.44,91,100,11.65,RU,1612574254
Normandin,48.8333,-72.5321,24.8,93,100,12.66,CA,1612574737
Mogos,38.877,-9.0946,53.6,93,40,11.5,PT,1612574737
Swift Current,50.2834,-107.8014,-11.2,77,90,14.97,CA,1612574737
Yangi Marg`ilon,40.4272,71.7189,32.0,69,100,2.33,UZ,1612574738
Ambilobe,-13.2,49.05,73.6,92,99,2.35,MG,1612574570
Pālkonda,18.6,83.75,62.13,74,0,3.69,IN,1612574738
Karaman Province,37.0833,33.25,36.52,79,0,1.79,TR,1612574672
Panguna,-6.3164,155.4848,84.4,58,10,3.69,PG,1612574739
Bom Jardim,-7.7958,-35.5872,73.4,83,0,9.22,BR,1612574739
Lagoa,39.05,-27.9833,58.3,86,49,16.82,PT,1612574473
Pekan,3.4836,103.3996,77.0,88,20,5.75,MY,1612574739
Sioux Lookout,50.1001,-91.917,-2.2,71,90,18.41,CA,1612574549
Upernavik,72.7868,-56.1549,6.3,72,100,5.86,GL,1612574410
Inta,66.0317,60.1659,-16.6,88,80,11.01,RU,1612574514
Ibiapina,-3.9233,-40.8894,65.55,82,26,5.17,BR,1612574741
Flinders,-34.5833,150.8552,70.0,93,100,13.0,AU,1612574496
Sigli,5.3848,95.9609,79.43,77,70,4.85,ID,1612574741
Cervantes,-39.05,-67.3833,84.2,34,0,3.44,AR,1612574741
Sandpoint,48.2766,-116.5533,41.0,45,1,4.61,US,1612574742
Kohlu,29.8962,69.252,40.6,54,0,0.67,PK,1612574648
Antsohihy,-14.8796,47.9875,74.23,93,99,1.95,MG,1612574742
Lynn Haven,30.2455,-85.6483,55.99,55,100,8.01,US,1612574456
Mikuni,36.2171,136.1519,53.6,54,75,11.5,JP,1612574743
Dhemāji,27.4833,94.5833,53.6,87,40,3.44,IN,1612574743
Erenhot,43.6475,111.9767,14.18,93,100,3.85,CN,1612574743
Pandan,14.0453,124.1694,80.24,85,0,9.19,PH,1612574573
San-Pédro,4.7485,-6.6363,78.37,93,14,6.71,CI,1612574744
Karakol,42.4907,78.3936,21.52,70,47,3.51,KG,1612574744
Parfen'yevo,58.484,43.4088,-0.74,92,100,10.18,RU,1612574744
Churapcha,62.0025,132.4325,-36.8,79,100,4.16,RU,1612574744
